[
  {
    "datasetid": "recup-verre",
    "recordid": "3c9fee5ec7fcc0df4b865825815bc4f4bf7cd932",
    "fields": {
      "commune": "AUCAMVILLE",
      "adresse": "PARKING CHATEAU D EAU-RUE RESTE",
      "code_com": "31022",
      "geo_point_2d": [
        43.66748069690011,
        1.427829654237054
      ],
      "dmt_type": "Verre",
      "geo_shape": {
        "type": "Point",
        "coordinates": [
          1.427829654237054,
          43.66748069690011
        ]
      },
      "id": "AUCVE5006"
    },
    "geometry": {
      "type": "Point",
      "coordinates": [
        1.427829654237054,
        43.66748069690011
      ]
    },
    "record_timestamp": "2019-03-04T10:45:32+01:00"
  },
  {
    "datasetid": "recup-verre",
    "recordid": "ff6d21ade04087e8186d131b6d8b52b4559958a0",
    "fields": {
      "commune": "AUSSONNE",
      "adresse": "CHEMIN DE MOUNUESTIE",
      "code_com": "31032",
      "geo_point_2d": [
        43.68538917776669,
        1.320835411981602
      ],
      "dmt_type": "Verre",
      "geo_shape": {
        "type": "Point",
        "coordinates": [
          1.320835411981602,
          43.68538917776669
        ]
      },
      "id": "AUSVE5003"
    },
    "geometry": {
      "type": "Point",
      "coordinates": [
        1.320835411981602,
        43.68538917776669
      ]
    },
    "record_timestamp": "2019-03-04T10:45:32+01:00"
  },
  {
    "datasetid": "recup-verre",
    "recordid": "d7105fd55eb1d04385a5c6dd0f8717ec32060023",
    "fields": {
      "commune": "TOULOUSE",
      "adresse": "RUE DES COUTELIERS RUE DU PONT DE TOUNNIS",
      "code_com": "31555",
      "geo_point_2d": [
        43.59784899966825,
        1.442048998546799
      ],
      "dmt_type": "Verre",
      "geo_shape": {
        "type": "Point",
        "coordinates": [
          1.442048998546799,
          43.59784899966825
        ]
      },
      "id": "TLSVE0037"
    },
    "geometry": {
      "type": "Point",
      "coordinates": [
        1.442048998546799,
        43.59784899966825
      ]
    },
    "record_timestamp": "2019-03-04T10:45:32+01:00"
  },
  {
    "datasetid": "recup-verre",
    "recordid": "2bb3fecacef552dbe8ae53330233fefab05cfa44",
    "fields": {
      "commune": "TOULOUSE",
      "adresse": "128 RUE LEON-JOSEPH BONNAT / RUE EUGENE SUE",
      "code_com": "31555",
      "geo_point_2d": [
        43.58146505826596,
        1.4578814100405
      ],
      "dmt_type": "Verre",
      "geo_shape": {
        "type": "Point",
        "coordinates": [
          1.4578814100405,
          43.58146505826596
        ]
      },
      "id": "TLSVE5017"
    },
    "geometry": {
      "type": "Point",
      "coordinates": [
        1.4578814100405,
        43.58146505826596
      ]
    },
    "record_timestamp": "2019-03-04T10:45:32+01:00"
  },
  {
    "datasetid": "recup-verre",
    "recordid": "6ed40d4f41488787e5625fb16f048e4b0b41ccd4",
    "fields": {
      "commune": "TOULOUSE",
      "adresse": "RUE DES TROIS PILIERS (ARNAUD BERNARD)",
      "code_com": "31555",
      "geo_point_2d": [
        43.61026700059657,
        1.440281998886056
      ],
      "dmt_type": "Verre",
      "geo_shape": {
        "type": "Point",
        "coordinates": [
          1.440281998886056,
          43.61026700059657
        ]
      },
      "id": "TLSVE0038"
    },
    "geometry": {
      "type": "Point",
      "coordinates": [
        1.440281998886056,
        43.61026700059657
      ]
    },
    "record_timestamp": "2019-03-04T10:45:32+01:00"
  },
  {
    "datasetid": "recup-verre",
    "recordid": "fada36632951308560aaedea91eb3439d32064f7",
    "fields": {
      "commune": "TOULOUSE",
      "adresse": "RUE JEAN DUPLESSIS / RUE DU MIDI",
      "code_com": "31555",
      "geo_point_2d": [
        43.582256482884794,
        1.460946849052165
      ],
      "dmt_type": "Verre",
      "geo_shape": {
        "type": "Point",
        "coordinates": [
          1.460946849052165,
          43.582256482884794
        ]
      },
      "id": "TLSVE5018"
    },
    "geometry": {
      "type": "Point",
      "coordinates": [
        1.460946849052165,
        43.582256482884794
      ]
    },
    "record_timestamp": "2019-03-04T10:45:32+01:00"
  },
  {
    "datasetid": "recup-verre",
    "recordid": "dbb30ee5a3048c0e8446e24afc3472d3c5b36ea6",
    "fields": {
      "commune": "TOULOUSE",
      "adresse": "RUE PEYROLIERES / RUE DE METZ",
      "code_com": "31555",
      "geo_point_2d": [
        43.599872771299154,
        1.441060511259135
      ],
      "dmt_type": "Verre",
      "geo_shape": {
        "type": "Point",
        "coordinates": [
          1.441060511259135,
          43.599872771299154
        ]
      },
      "id": "TLSVE0025"
    },
    "geometry": {
      "type": "Point",
      "coordinates": [
        1.441060511259135,
        43.599872771299154
      ]
    },
    "record_timestamp": "2019-03-04T10:45:32+01:00"
  },
  {
    "datasetid": "recup-verre",
    "recordid": "98d779f7844a77a981e69ccf535cef4b0608f436",
    "fields": {
      "commune": "TOULOUSE",
      "adresse": "91 RUE LEON-JOSEPH BONNAT",
      "code_com": "31555",
      "geo_point_2d": [
        43.579882234450935,
        1.459532055457487
      ],
      "dmt_type": "Verre",
      "geo_shape": {
        "type": "Point",
        "coordinates": [
          1.459532055457487,
          43.579882234450935
        ]
      },
      "id": "TLSVE5016"
    },
    "geometry": {
      "type": "Point",
      "coordinates": [
        1.459532055457487,
        43.579882234450935
      ]
    },
    "record_timestamp": "2019-03-04T10:45:32+01:00"
  },
  {
    "datasetid": "recup-verre",
    "recordid": "0e33becbfd949212e3e2eba738254fe7aee238bd",
    "fields": {
      "commune": "TOULOUSE",
      "adresse": "RUE OZENNE RUE VELANE",
      "code_com": "31555",
      "geo_point_2d": [
        43.59591686082578,
        1.447663066568535
      ],
      "dmt_type": "Verre",
      "geo_shape": {
        "type": "Point",
        "coordinates": [
          1.447663066568535,
          43.59591686082578
        ]
      },
      "id": "TLSVE0032"
    },
    "geometry": {
      "type": "Point",
      "coordinates": [
        1.447663066568535,
        43.59591686082578
      ]
    },
    "record_timestamp": "2019-03-04T10:45:32+01:00"
  },
  {
    "datasetid": "recup-verre",
    "recordid": "92ce1d98b554b9944b818d1a9935e33eb49d9efa",
    "fields": {
      "commune": "TOULOUSE",
      "adresse": "RUE RAYMOND BADIOU",
      "code_com": "31555",
      "geo_point_2d": [
        43.602787288788555,
        1.406790327573732
      ],
      "dmt_type": "Verre",
      "geo_shape": {
        "type": "Point",
        "coordinates": [
          1.406790327573732,
          43.602787288788555
        ]
      },
      "id": "TLSVE0041"
    },
    "geometry": {
      "type": "Point",
      "coordinates": [
        1.406790327573732,
        43.602787288788555
      ]
    },
    "record_timestamp": "2019-03-04T10:45:32+01:00"
  },
  {
    "datasetid": "recup-verre",
    "recordid": "c76447e156d3a1ae44b80ff79c5e385368295408",
    "fields": {
      "commune": "TOULOUSE",
      "adresse": "PLACE SAINTE SCARBES",
      "code_com": "31555",
      "geo_point_2d": [
        43.59799898287359,
        1.4484490518878
      ],
      "dmt_type": "Verre",
      "geo_shape": {
        "type": "Point",
        "coordinates": [
          1.4484490518878,
          43.59799898287359
        ]
      },
      "id": "TLSVE0030"
    },
    "geometry": {
      "type": "Point",
      "coordinates": [
        1.4484490518878,
        43.59799898287359
      ]
    },
    "record_timestamp": "2019-03-04T10:45:32+01:00"
  },
  {
    "datasetid": "recup-verre",
    "recordid": "301a1876ce496f89cde6cbfedcab1f21bbb91ea7",
    "fields": {
      "commune": "TOULOUSE",
      "adresse": "CHEMIN DE LESTANG",
      "code_com": "31555",
      "geo_point_2d": [
        43.56230114742294,
        1.395315062637479
      ],
      "dmt_type": "Verre",
      "geo_shape": {
        "type": "Point",
        "coordinates": [
          1.395315062637479,
          43.56230114742294
        ]
      },
      "id": "TLSVE0040"
    },
    "geometry": {
      "type": "Point",
      "coordinates": [
        1.395315062637479,
        43.56230114742294
      ]
    },
    "record_timestamp": "2019-03-04T10:45:32+01:00"
  },
  {
    "datasetid": "recup-verre",
    "recordid": "f7115199d334a9a7f124d124c851d29195e32be8",
    "fields": {
      "commune": "TOULOUSE",
      "adresse": "221 CHEMIN DE GABARDIE - LES JARDINS DE GABARDIENU",
      "code_com": "31555",
      "geo_point_2d": [
        43.64332967078507,
        1.483583224817166
      ],
      "dmt_type": "Verre",
      "geo_shape": {
        "type": "Point",
        "coordinates": [
          1.483583224817166,
          43.64332967078507
        ]
      },
      "id": "TLSVE5284"
    },
    "geometry": {
      "type": "Point",
      "coordinates": [
        1.483583224817166,
        43.64332967078507
      ]
    },
    "record_timestamp": "2019-03-04T10:45:32+01:00"
  },
  {
    "datasetid": "recup-verre",
    "recordid": "9ba5238ce4c3c3568b582053b66e2e85f7b32b97",
    "fields": {
      "commune": "TOULOUSE",
      "adresse": "BOULEVARD DE MARENGO / RUE PERIOLE",
      "code_com": "31555",
      "geo_point_2d": [
        43.611489376649395,
        1.456151803486107
      ],
      "dmt_type": "Verre",
      "geo_shape": {
        "type": "Point",
        "coordinates": [
          1.456151803486107,
          43.611489376649395
        ]
      },
      "id": "TLSVE5256"
    },
    "geometry": {
      "type": "Point",
      "coordinates": [
        1.456151803486107,
        43.611489376649395
      ]
    },
    "record_timestamp": "2019-03-04T10:45:32+01:00"
  },
  {
    "datasetid": "recup-verre",
    "recordid": "05eb95390df554a41b8a5659484a571a9955b0b9",
    "fields": {
      "commune": "TOULOUSE",
      "adresse": "RUE LEON JOUHAUX / PLACE JOLIMONT",
      "code_com": "31555",
      "geo_point_2d": [
        43.613820766811216,
        1.461811062632175
      ],
      "dmt_type": "Verre",
      "geo_shape": {
        "type": "Point",
        "coordinates": [
          1.461811062632175,
          43.613820766811216
        ]
      },
      "id": "TLSVE5272"
    },
    "geometry": {
      "type": "Point",
      "coordinates": [
        1.461811062632175,
        43.613820766811216
      ]
    },
    "record_timestamp": "2019-03-04T10:45:32+01:00"
  },
  {
    "datasetid": "recup-verre",
    "recordid": "5c67ac582bbfe8645be1069e5debb6762c2333be",
    "fields": {
      "commune": "TOULOUSE",
      "adresse": "CHEMIN DE GRAMONT - DECHETERIE",
      "code_com": "31555",
      "geo_point_2d": [
        43.6315528319555,
        1.475566054752615
      ],
      "dmt_type": "Verre",
      "geo_shape": {
        "type": "Point",
        "coordinates": [
          1.475566054752615,
          43.6315528319555
        ]
      },
      "id": "TLSVE5276"
    },
    "geometry": {
      "type": "Point",
      "coordinates": [
        1.475566054752615,
        43.6315528319555
      ]
    },
    "record_timestamp": "2019-03-04T10:45:32+01:00"
  },
  {
    "datasetid": "recup-verre",
    "recordid": "a74c62c495d2f01f9b327bba563610917f4e791a",
    "fields": {
      "commune": "TOULOUSE",
      "adresse": "5 RUE DES AZALEES - JARDIN",
      "code_com": "31555",
      "geo_point_2d": [
        43.63746226683193,
        1.467312847311832
      ],
      "dmt_type": "Verre",
      "geo_shape": {
        "type": "Point",
        "coordinates": [
          1.467312847311832,
          43.63746226683193
        ]
      },
      "id": "TLSVE5278"
    },
    "geometry": {
      "type": "Point",
      "coordinates": [
        1.467312847311832,
        43.63746226683193
      ]
    },
    "record_timestamp": "2019-03-04T10:45:32+01:00"
  },
  {
    "datasetid": "recup-verre",
    "recordid": "7c2ed233393e75eb7307590fd9d846ea6fe304d3",
    "fields": {
      "commune": "TOULOUSE",
      "adresse": "BOULEVARD RICHARD WAGNER",
      "code_com": "31555",
      "geo_point_2d": [
        43.60407814461334,
        1.419759510629691
      ],
      "dmt_type": "Verre",
      "geo_shape": {
        "type": "Point",
        "coordinates": [
          1.419759510629691,
          43.60407814461334
        ]
      },
      "id": "TLSVE5290"
    },
    "geometry": {
      "type": "Point",
      "coordinates": [
        1.419759510629691,
        43.60407814461334
      ]
    },
    "record_timestamp": "2019-03-04T10:45:32+01:00"
  },
  {
    "datasetid": "recup-verre",
    "recordid": "c03bc2f1c8b009ae97260ecf9f0b2df1c497943c",
    "fields": {
      "commune": "TOULOUSE",
      "adresse": "AVENUE DE LA GLOIRE",
      "code_com": "31555",
      "geo_point_2d": [
        43.607409385014925,
        1.470457283553297
      ],
      "dmt_type": "Verre",
      "geo_shape": {
        "type": "Point",
        "coordinates": [
          1.470457283553297,
          43.607409385014925
        ]
      },
      "id": "TLSVE5258"
    },
    "geometry": {
      "type": "Point",
      "coordinates": [
        1.470457283553297,
        43.607409385014925
      ]
    },
    "record_timestamp": "2019-03-04T10:45:32+01:00"
  },
  {
    "datasetid": "recup-verre",
    "recordid": "16cd67a08d69ddffc302d03296336b28bb665406",
    "fields": {
      "commune": "TOULOUSE",
      "adresse": "RUE DES PAQUERETTES",
      "code_com": "31555",
      "geo_point_2d": [
        43.62227118479162,
        1.464090387730874
      ],
      "dmt_type": "Verre",
      "geo_shape": {
        "type": "Point",
        "coordinates": [
          1.464090387730874,
          43.62227118479162
        ]
      },
      "id": "TLSVE5274"
    },
    "geometry": {
      "type": "Point",
      "coordinates": [
        1.464090387730874,
        43.62227118479162
      ]
    },
    "record_timestamp": "2019-03-04T10:45:32+01:00"
  },
  {
    "datasetid": "recup-verre",
    "recordid": "0fdcfc9ede13f6ceb8b2060f2620fc4610310fc7",
    "fields": {
      "commune": "TOULOUSE",
      "adresse": "RUE DES REDOUTES",
      "code_com": "31555",
      "geo_point_2d": [
        43.61473662833991,
        1.460946436275005
      ],
      "dmt_type": "Verre",
      "geo_shape": {
        "type": "Point",
        "coordinates": [
          1.460946436275005,
          43.61473662833991
        ]
      },
      "id": "TLSVE5271"
    },
    "geometry": {
      "type": "Point",
      "coordinates": [
        1.460946436275005,
        43.61473662833991
      ]
    },
    "record_timestamp": "2019-03-04T10:45:32+01:00"
  },
  {
    "datasetid": "recup-verre",
    "recordid": "e1d4cb7e2b9ea76bf0a8f937af5e766c213dc8dc",
    "fields": {
      "commune": "TOULOUSE",
      "adresse": "RUE DE PERIOLE",
      "code_com": "31555",
      "geo_point_2d": [
        43.61831669944983,
        1.461968208015755
      ],
      "dmt_type": "Verre",
      "geo_shape": {
        "type": "Point",
        "coordinates": [
          1.461968208015755,
          43.61831669944983
        ]
      },
      "id": "TLSVE5266"
    },
    "geometry": {
      "type": "Point",
      "coordinates": [
        1.461968208015755,
        43.61831669944983
      ]
    },
    "record_timestamp": "2019-03-04T10:45:32+01:00"
  },
  {
    "datasetid": "recup-verre",
    "recordid": "94d8090d314e11ead95aed1fe3d7837a9db28241",
    "fields": {
      "commune": "TOULOUSE",
      "adresse": "AVENUE DES ETATS-UNIS/ECOLE JULES FERRY",
      "code_com": "31555",
      "geo_point_2d": [
        43.6322600389146,
        1.431785142715724
      ],
      "dmt_type": "Verre",
      "geo_shape": {
        "type": "Point",
        "coordinates": [
          1.431785142715724,
          43.6322600389146
        ]
      },
      "id": "TLSVE5084"
    },
    "geometry": {
      "type": "Point",
      "coordinates": [
        1.431785142715724,
        43.6322600389146
      ]
    },
    "record_timestamp": "2019-03-04T10:45:32+01:00"
  },
  {
    "datasetid": "recup-verre",
    "recordid": "57bbe6d803cc16104afc91c7d738afe9da8e0776",
    "fields": {
      "commune": "TOULOUSE",
      "adresse": "DERRIERE PARKING CASINO BARRIERE",
      "code_com": "31555",
      "geo_point_2d": [
        43.571633965047596,
        1.43390815454367
      ],
      "dmt_type": "Verre",
      "geo_shape": {
        "type": "Point",
        "coordinates": [
          1.43390815454367,
          43.571633965047596
        ]
      },
      "id": "TLSVE5107"
    },
    "geometry": {
      "type": "Point",
      "coordinates": [
        1.43390815454367,
        43.571633965047596
      ]
    },
    "record_timestamp": "2019-03-04T10:45:32+01:00"
  },
  {
    "datasetid": "recup-verre",
    "recordid": "c07425d684925335219bbf6f436c11b246332e85",
    "fields": {
      "commune": "TOULOUSE",
      "adresse": "ROND-POINT MARGUERITE DURAND",
      "code_com": "31555",
      "geo_point_2d": [
        43.54625781903996,
        1.453087186177716
      ],
      "dmt_type": "Verre",
      "geo_shape": {
        "type": "Point",
        "coordinates": [
          1.453087186177716,
          43.54625781903996
        ]
      },
      "id": "TLSVE5076"
    },
    "geometry": {
      "type": "Point",
      "coordinates": [
        1.453087186177716,
        43.54625781903996
      ]
    },
    "record_timestamp": "2019-03-04T10:45:32+01:00"
  },
  {
    "datasetid": "recup-verre",
    "recordid": "7e1b2930b58c3fc16f56985e00a15342c403917e",
    "fields": {
      "commune": "TOULOUSE",
      "adresse": "RUE DU GENERAL BOURBAKI",
      "code_com": "31555",
      "geo_point_2d": [
        43.62410242181227,
        1.431785247113557
      ],
      "dmt_type": "Verre",
      "geo_shape": {
        "type": "Point",
        "coordinates": [
          1.431785247113557,
          43.62410242181227
        ]
      },
      "id": "TLSVE5100"
    },
    "geometry": {
      "type": "Point",
      "coordinates": [
        1.431785247113557,
        43.62410242181227
      ]
    },
    "record_timestamp": "2019-03-04T10:45:32+01:00"
  },
  {
    "datasetid": "recup-verre",
    "recordid": "afd8a040ec61d794e604f9e011556c6f613c2303",
    "fields": {
      "commune": "TOULOUSE",
      "adresse": "IMPASSE DES ETATS-UNIS",
      "code_com": "31555",
      "geo_point_2d": [
        43.646033869609184,
        1.42714749229411
      ],
      "dmt_type": "Verre",
      "geo_shape": {
        "type": "Point",
        "coordinates": [
          1.42714749229411,
          43.646033869609184
        ]
      },
      "id": "TLSVE5080"
    },
    "geometry": {
      "type": "Point",
      "coordinates": [
        1.42714749229411,
        43.646033869609184
      ]
    },
    "record_timestamp": "2019-03-04T10:45:32+01:00"
  },
  {
    "datasetid": "recup-verre",
    "recordid": "8d1702c1ba115bc6bf45e09b1b48e0c8eac600cd",
    "fields": {
      "commune": "TOULOUSE",
      "adresse": "CHEMIN HENRI BESSEMER",
      "code_com": "31555",
      "geo_point_2d": [
        43.616318291683946,
        1.423925219947073
      ],
      "dmt_type": "Verre",
      "geo_shape": {
        "type": "Point",
        "coordinates": [
          1.423925219947073,
          43.616318291683946
        ]
      },
      "id": "TLSVE5106"
    },
    "geometry": {
      "type": "Point",
      "coordinates": [
        1.423925219947073,
        43.616318291683946
      ]
    },
    "record_timestamp": "2019-03-04T10:45:32+01:00"
  },
  {
    "datasetid": "recup-verre",
    "recordid": "42ba382e9bb645e862cf0b5c6b13f6a9a007b8c5",
    "fields": {
      "commune": "TOULOUSE",
      "adresse": "RUE DU CAILLOU-GRIS",
      "code_com": "31555",
      "geo_point_2d": [
        43.620064836796764,
        1.434929346894769
      ],
      "dmt_type": "Verre",
      "geo_shape": {
        "type": "Point",
        "coordinates": [
          1.434929346894769,
          43.620064836796764
        ]
      },
      "id": "TLSVE5099"
    },
    "geometry": {
      "type": "Point",
      "coordinates": [
        1.434929346894769,
        43.620064836796764
      ]
    },
    "record_timestamp": "2019-03-04T10:45:32+01:00"
  },
  {
    "datasetid": "recup-verre",
    "recordid": "50442a9e231ba9134ae28e50254f70cd0bf245e9",
    "fields": {
      "commune": "TOULOUSE",
      "adresse": "7 CHEMIN DAUZEVILLE",
      "code_com": "31555",
      "geo_point_2d": [
        43.54784156865296,
        1.456624226646855
      ],
      "dmt_type": "Verre",
      "geo_shape": {
        "type": "Point",
        "coordinates": [
          1.456624226646855,
          43.54784156865296
        ]
      },
      "id": "TLSVE5074"
    },
    "geometry": {
      "type": "Point",
      "coordinates": [
        1.456624226646855,
        43.54784156865296
      ]
    },
    "record_timestamp": "2019-03-04T10:45:32+01:00"
  },
  {
    "datasetid": "recup-verre",
    "recordid": "bc32797a5ee7c4eab5a730cec3005cf43e1ad9f2",
    "fields": {
      "commune": "TOULOUSE",
      "adresse": "CHEMIN DU VALLON",
      "code_com": "31555",
      "geo_point_2d": [
        43.55313420624427,
        1.450336057825182
      ],
      "dmt_type": "Verre",
      "geo_shape": {
        "type": "Point",
        "coordinates": [
          1.450336057825182,
          43.55313420624427
        ]
      },
      "id": "TLSVE5065"
    },
    "geometry": {
      "type": "Point",
      "coordinates": [
        1.450336057825182,
        43.55313420624427
      ]
    },
    "record_timestamp": "2019-03-04T10:45:32+01:00"
  },
  {
    "datasetid": "recup-verre",
    "recordid": "64ead37fbe85aeff1c7cb011d8066f2caed82959",
    "fields": {
      "commune": "TOULOUSE",
      "adresse": "RUE MONTMORENCY",
      "code_com": "31555",
      "geo_point_2d": [
        43.61382052984455,
        1.426597701771827
      ],
      "dmt_type": "Verre",
      "geo_shape": {
        "type": "Point",
        "coordinates": [
          1.426597701771827,
          43.61382052984455
        ]
      },
      "id": "TLSVE5111"
    },
    "geometry": {
      "type": "Point",
      "coordinates": [
        1.426597701771827,
        43.61382052984455
      ]
    },
    "record_timestamp": "2019-03-04T10:45:32+01:00"
  },
  {
    "datasetid": "recup-verre",
    "recordid": "77eb7dbaaa04d81c4ba08b658d92e5026752f2c7",
    "fields": {
      "commune": "TOULOUSE",
      "adresse": "ROUTE DE BLAGNAC/RESTAURANT L OLYMPE",
      "code_com": "31555",
      "geo_point_2d": [
        43.62526766365054,
        1.402231165411057
      ],
      "dmt_type": "Verre",
      "geo_shape": {
        "type": "Point",
        "coordinates": [
          1.402231165411057,
          43.62526766365054
        ]
      },
      "id": "TLSVE5202"
    },
    "geometry": {
      "type": "Point",
      "coordinates": [
        1.402231165411057,
        43.62526766365054
      ]
    },
    "record_timestamp": "2019-03-04T10:45:32+01:00"
  },
  {
    "datasetid": "recup-verre",
    "recordid": "451f78fcbba60baffce0858c3fe806093c3967f6",
    "fields": {
      "commune": "TOULOUSE",
      "adresse": "BOULEVARD ANDRE NETWILLER",
      "code_com": "31555",
      "geo_point_2d": [
        43.64299663992094,
        1.462203687697906
      ],
      "dmt_type": "Verre",
      "geo_shape": {
        "type": "Point",
        "coordinates": [
          1.462203687697906,
          43.64299663992094
        ]
      },
      "id": "TLSVE5176"
    },
    "geometry": {
      "type": "Point",
      "coordinates": [
        1.462203687697906,
        43.64299663992094
      ]
    },
    "record_timestamp": "2019-03-04T10:45:32+01:00"
  },
  {
    "datasetid": "recup-verre",
    "recordid": "f080422b51bdd337624aa880f67be806fdb404c4",
    "fields": {
      "commune": "TOULOUSE",
      "adresse": "CHEMIN TURLU /DECHETTERIE",
      "code_com": "31555",
      "geo_point_2d": [
        43.658223856685666,
        1.436972488635337
      ],
      "dmt_type": "Verre",
      "geo_shape": {
        "type": "Point",
        "coordinates": [
          1.436972488635337,
          43.658223856685666
        ]
      },
      "id": "TLSVE5169"
    },
    "geometry": {
      "type": "Point",
      "coordinates": [
        1.436972488635337,
        43.658223856685666
      ]
    },
    "record_timestamp": "2019-03-04T10:45:32+01:00"
  },
  {
    "datasetid": "recup-verre",
    "recordid": "22877cd183d8c7882a33a6b07f0a61a2b7b822e0",
    "fields": {
      "commune": "TOULOUSE",
      "adresse": "166 RUE EDMOND ROSTAND",
      "code_com": "31555",
      "geo_point_2d": [
        43.640791171437996,
        1.448684301376256
      ],
      "dmt_type": "Verre",
      "geo_shape": {
        "type": "Point",
        "coordinates": [
          1.448684301376256,
          43.640791171437996
        ]
      },
      "id": "TLSVE5174"
    },
    "geometry": {
      "type": "Point",
      "coordinates": [
        1.448684301376256,
        43.640791171437996
      ]
    },
    "record_timestamp": "2019-03-04T10:45:32+01:00"
  },
  {
    "datasetid": "recup-verre",
    "recordid": "42df844e953d4ee8bd6200c7d0951824a52352fe",
    "fields": {
      "commune": "TOULOUSE",
      "adresse": "23 RUE MAURICE MELAT",
      "code_com": "31555",
      "geo_point_2d": [
        43.637170853106284,
        1.450177771472522
      ],
      "dmt_type": "Verre",
      "geo_shape": {
        "type": "Point",
        "coordinates": [
          1.450177771472522,
          43.637170853106284
        ]
      },
      "id": "TLSVE5185"
    },
    "geometry": {
      "type": "Point",
      "coordinates": [
        1.450177771472522,
        43.637170853106284
      ]
    },
    "record_timestamp": "2019-03-04T10:45:32+01:00"
  },
  {
    "datasetid": "recup-verre",
    "recordid": "0b15fa6f22bf730f5cb3ec902e23827d3a5e379b",
    "fields": {
      "commune": "TOULOUSE",
      "adresse": "ALLEE DE GRAND-SELVE",
      "code_com": "31555",
      "geo_point_2d": [
        43.64861366348445,
        1.449470213467869
      ],
      "dmt_type": "Verre",
      "geo_shape": {
        "type": "Point",
        "coordinates": [
          1.449470213467869,
          43.64861366348445
        ]
      },
      "id": "TLSVE5172"
    },
    "geometry": {
      "type": "Point",
      "coordinates": [
        1.449470213467869,
        43.64861366348445
      ]
    },
    "record_timestamp": "2019-03-04T10:45:32+01:00"
  },
  {
    "datasetid": "recup-verre",
    "recordid": "5fb5c8d54ea444ad9bb4307a9127ae0446a7f9a1",
    "fields": {
      "commune": "TOULOUSE",
      "adresse": "RUE DES BOUQUETINS",
      "code_com": "31555",
      "geo_point_2d": [
        43.640166963991796,
        1.444675648713158
      ],
      "dmt_type": "Verre",
      "geo_shape": {
        "type": "Point",
        "coordinates": [
          1.444675648713158,
          43.640166963991796
        ]
      },
      "id": "TLSVE5173"
    },
    "geometry": {
      "type": "Point",
      "coordinates": [
        1.444675648713158,
        43.640166963991796
      ]
    },
    "record_timestamp": "2019-03-04T10:45:32+01:00"
  },
  {
    "datasetid": "recup-verre",
    "recordid": "a3d888a023a3f3d5842f22ca92adce093c6fed47",
    "fields": {
      "commune": "TOULOUSE",
      "adresse": "RUE PIERRETTE LOUIN",
      "code_com": "31555",
      "geo_point_2d": [
        43.62909713801913,
        1.449706266107123
      ],
      "dmt_type": "Verre",
      "geo_shape": {
        "type": "Point",
        "coordinates": [
          1.449706266107123,
          43.62909713801913
        ]
      },
      "id": "TLSVE5187"
    },
    "geometry": {
      "type": "Point",
      "coordinates": [
        1.449706266107123,
        43.62909713801913
      ]
    },
    "record_timestamp": "2019-03-04T10:45:32+01:00"
  },
  {
    "datasetid": "recup-verre",
    "recordid": "a61d1137f6560ebad776aac101a00a2b1b7019bd",
    "fields": {
      "commune": "TOULOUSE",
      "adresse": "AVENUE JEAN RIEUX",
      "code_com": "31555",
      "geo_point_2d": [
        43.59758262989233,
        1.458274214683038
      ],
      "dmt_type": "Verre",
      "geo_shape": {
        "type": "Point",
        "coordinates": [
          1.458274214683038,
          43.59758262989233
        ]
      },
      "id": "TLSVE5210"
    },
    "geometry": {
      "type": "Point",
      "coordinates": [
        1.458274214683038,
        43.59758262989233
      ]
    },
    "record_timestamp": "2019-03-04T10:45:32+01:00"
  },
  {
    "datasetid": "recup-verre",
    "recordid": "a55fc333d6d1d42c0c9329b9bc2f1b180e6450eb",
    "fields": {
      "commune": "TOULOUSE",
      "adresse": "RUE DES CHAMOIS",
      "code_com": "31555",
      "geo_point_2d": [
        43.6392930840053,
        1.442003213458858
      ],
      "dmt_type": "Verre",
      "geo_shape": {
        "type": "Point",
        "coordinates": [
          1.442003213458858,
          43.6392930840053
        ]
      },
      "id": "TLSVE5180"
    },
    "geometry": {
      "type": "Point",
      "coordinates": [
        1.442003213458858,
        43.6392930840053
      ]
    },
    "record_timestamp": "2019-03-04T10:45:32+01:00"
  },
  {
    "datasetid": "recup-verre",
    "recordid": "f6f76b427cbfb4618a2506406dba8e9f497e65f7",
    "fields": {
      "commune": "TOULOUSE",
      "adresse": "RUE DE LISIEUX / CHEMIN TEYNIER",
      "code_com": "31555",
      "geo_point_2d": [
        43.59820681008006,
        1.393113763798459
      ],
      "dmt_type": "Verre",
      "geo_shape": {
        "type": "Point",
        "coordinates": [
          1.393113763798459,
          43.59820681008006
        ]
      },
      "id": "TLSVE5435"
    },
    "geometry": {
      "type": "Point",
      "coordinates": [
        1.393113763798459,
        43.59820681008006
      ]
    },
    "record_timestamp": "2019-03-04T10:45:32+01:00"
  },
  {
    "datasetid": "recup-verre",
    "recordid": "e62741b84f6b82b7f0ca16d50af41adbae8684d3",
    "fields": {
      "commune": "TOULOUSE",
      "adresse": "CHEMIN SALINIE / RUE POUTIER",
      "code_com": "31555",
      "geo_point_2d": [
        43.59179358976757,
        1.378022403721225
      ],
      "dmt_type": "Verre",
      "geo_shape": {
        "type": "Point",
        "coordinates": [
          1.378022403721225,
          43.59179358976757
        ]
      },
      "id": "TLSVE5432"
    },
    "geometry": {
      "type": "Point",
      "coordinates": [
        1.378022403721225,
        43.59179358976757
      ]
    },
    "record_timestamp": "2019-03-04T10:45:32+01:00"
  },
  {
    "datasetid": "recup-verre",
    "recordid": "cddf73928c997ca55a9d741eb1ab97a308d5ba67",
    "fields": {
      "commune": "TOULOUSE",
      "adresse": "PLACE JACQUES SAUVEGRAIN",
      "code_com": "31555",
      "geo_point_2d": [
        43.58950302379523,
        1.378101036222302
      ],
      "dmt_type": "Verre",
      "geo_shape": {
        "type": "Point",
        "coordinates": [
          1.378101036222302,
          43.58950302379523
        ]
      },
      "id": "TLSVE5431"
    },
    "geometry": {
      "type": "Point",
      "coordinates": [
        1.378101036222302,
        43.58950302379523
      ]
    },
    "record_timestamp": "2019-03-04T10:45:32+01:00"
  },
  {
    "datasetid": "recup-verre",
    "recordid": "d23fdce3c566a1082ea5d14b8d32bd8cc19785d9",
    "fields": {
      "commune": "TOULOUSE",
      "adresse": "RUE FERDINAND LAULANIE",
      "code_com": "31555",
      "geo_point_2d": [
        43.58034003345604,
        1.401131321140875
      ],
      "dmt_type": "Verre",
      "geo_shape": {
        "type": "Point",
        "coordinates": [
          1.401131321140875,
          43.58034003345604
        ]
      },
      "id": "TLSVE5452"
    },
    "geometry": {
      "type": "Point",
      "coordinates": [
        1.401131321140875,
        43.58034003345604
      ]
    },
    "record_timestamp": "2019-03-04T10:45:32+01:00"
  },
  {
    "datasetid": "recup-verre",
    "recordid": "8ee100d57ebb08f8b30143d547265e84f57df969",
    "fields": {
      "commune": "TOULOUSE",
      "adresse": "CHEMIN DES CAPELLES",
      "code_com": "31555",
      "geo_point_2d": [
        43.6015379764783,
        1.384703385704925
      ],
      "dmt_type": "Verre",
      "geo_shape": {
        "type": "Point",
        "coordinates": [
          1.384703385704925,
          43.6015379764783
        ]
      },
      "id": "TLSVE5436"
    },
    "geometry": {
      "type": "Point",
      "coordinates": [
        1.384703385704925,
        43.6015379764783
      ]
    },
    "record_timestamp": "2019-03-04T10:45:32+01:00"
  },
  {
    "datasetid": "recup-verre",
    "recordid": "4183589cb08c747492c0a4f8bdb118b33e144650",
    "fields": {
      "commune": "TOULOUSE",
      "adresse": "61 CHEMIN TEYNIER",
      "code_com": "31555",
      "geo_point_2d": [
        43.59720738697409,
        1.389576723980346
      ],
      "dmt_type": "Verre",
      "geo_shape": {
        "type": "Point",
        "coordinates": [
          1.389576723980346,
          43.59720738697409
        ]
      },
      "id": "TLSVE5434"
    },
    "geometry": {
      "type": "Point",
      "coordinates": [
        1.389576723980346,
        43.59720738697409
      ]
    },
    "record_timestamp": "2019-03-04T10:45:32+01:00"
  },
  {
    "datasetid": "recup-verre",
    "recordid": "5faf4097b2637065f2f01de41f293a02af9983c3",
    "fields": {
      "commune": "TOULOUSE",
      "adresse": "ALLEES PAUL SABATIER ( FACE AU N\u00b021 )",
      "code_com": "31555",
      "geo_point_2d": [
        43.596957983064975,
        1.45575898263387
      ],
      "dmt_type": "Verre",
      "geo_shape": {
        "type": "Point",
        "coordinates": [
          1.45575898263387,
          43.596957983064975
        ]
      },
      "id": "TLSVE5023"
    },
    "geometry": {
      "type": "Point",
      "coordinates": [
        1.45575898263387,
        43.596957983064975
      ]
    },
    "record_timestamp": "2019-03-04T10:45:32+01:00"
  },
  {
    "datasetid": "recup-verre",
    "recordid": "1afaadfec7f6b2a0227f824fec89ef4aa3a4585a",
    "fields": {
      "commune": "TOULOUSE",
      "adresse": "INSA-  ALLEE DES SCIENCES APPLIQUEES",
      "code_com": "31555",
      "geo_point_2d": [
        43.57242573277216,
        1.468571302122101
      ],
      "dmt_type": "Verre",
      "geo_shape": {
        "type": "Point",
        "coordinates": [
          1.468571302122101,
          43.57242573277216
        ]
      },
      "id": "TLSVE5028"
    },
    "geometry": {
      "type": "Point",
      "coordinates": [
        1.468571302122101,
        43.57242573277216
      ]
    },
    "record_timestamp": "2019-03-04T10:45:32+01:00"
  },
  {
    "datasetid": "recup-verre",
    "recordid": "5a7e3129adcf64c1ca7c7cca4dad368bd701b168",
    "fields": {
      "commune": "TOULOUSE",
      "adresse": "O ROUTE DE NARBONNE / RUE CAUBERE",
      "code_com": "31555",
      "geo_point_2d": [
        43.568967824124364,
        1.456466745789507
      ],
      "dmt_type": "Verre",
      "geo_shape": {
        "type": "Point",
        "coordinates": [
          1.456466745789507,
          43.568967824124364
        ]
      },
      "id": "TLSVE5036"
    },
    "geometry": {
      "type": "Point",
      "coordinates": [
        1.456466745789507,
        43.568967824124364
      ]
    },
    "record_timestamp": "2019-03-04T10:45:32+01:00"
  },
  {
    "datasetid": "recup-verre",
    "recordid": "1e77a55538c58ed31e97657096d1c86eeed15acc",
    "fields": {
      "commune": "TOULOUSE",
      "adresse": "O 85 CHEMIN DE LA SALADE-PONSAN",
      "code_com": "31555",
      "geo_point_2d": [
        43.56650970330405,
        1.452929720962816
      ],
      "dmt_type": "Verre",
      "geo_shape": {
        "type": "Point",
        "coordinates": [
          1.452929720962816,
          43.56650970330405
        ]
      },
      "id": "TLSVE5058"
    },
    "geometry": {
      "type": "Point",
      "coordinates": [
        1.452929720962816,
        43.56650970330405
      ]
    },
    "record_timestamp": "2019-03-04T10:45:32+01:00"
  },
  {
    "datasetid": "recup-verre",
    "recordid": "cd563e77b5a222e7379f2dcfda39980c389d68d6",
    "fields": {
      "commune": "TOULOUSE",
      "adresse": "CHEMIN DES COTES DE PECH DAVID",
      "code_com": "31555",
      "geo_point_2d": [
        43.562051506939696,
        1.447977906609884
      ],
      "dmt_type": "Verre",
      "geo_shape": {
        "type": "Point",
        "coordinates": [
          1.447977906609884,
          43.562051506939696
        ]
      },
      "id": "TLSVE5063"
    },
    "geometry": {
      "type": "Point",
      "coordinates": [
        1.447977906609884,
        43.562051506939696
      ]
    },
    "record_timestamp": "2019-03-04T10:45:32+01:00"
  },
  {
    "datasetid": "recup-verre",
    "recordid": "c87b532a86ada4b3afbbfee62779935197a8ad40",
    "fields": {
      "commune": "TOULOUSE",
      "adresse": "ALLEE DU LIEUTENANT LUCIEN LAFAY",
      "code_com": "31555",
      "geo_point_2d": [
        43.5549679050711,
        1.468099910507141
      ],
      "dmt_type": "Verre",
      "geo_shape": {
        "type": "Point",
        "coordinates": [
          1.468099910507141,
          43.5549679050711
        ]
      },
      "id": "TLSVE5037"
    },
    "geometry": {
      "type": "Point",
      "coordinates": [
        1.468099910507141,
        43.5549679050711
      ]
    },
    "record_timestamp": "2019-03-04T10:45:32+01:00"
  },
  {
    "datasetid": "recup-verre",
    "recordid": "24aba4adf1731a4c654532a008e325046880af4a",
    "fields": {
      "commune": "TOULOUSE",
      "adresse": "24 BOULEVARD RIQUET",
      "code_com": "31555",
      "geo_point_2d": [
        43.60620185833294,
        1.456230472330752
      ],
      "dmt_type": "Verre",
      "geo_shape": {
        "type": "Point",
        "coordinates": [
          1.456230472330752,
          43.60620185833294
        ]
      },
      "id": "TLSVE5059"
    },
    "geometry": {
      "type": "Point",
      "coordinates": [
        1.456230472330752,
        43.60620185833294
      ]
    },
    "record_timestamp": "2019-03-04T10:45:32+01:00"
  },
  {
    "datasetid": "recup-verre",
    "recordid": "2773ddee582b80fbd00d1cd103009a3ec46dfb6b",
    "fields": {
      "commune": "TOULOUSE",
      "adresse": "4 RUE DES MOUETTES",
      "code_com": "31555",
      "geo_point_2d": [
        43.57621642068651,
        1.4395673912655
      ],
      "dmt_type": "Verre",
      "geo_shape": {
        "type": "Point",
        "coordinates": [
          1.4395673912655,
          43.57621642068651
        ]
      },
      "id": "TLSVE5050"
    },
    "geometry": {
      "type": "Point",
      "coordinates": [
        1.4395673912655,
        43.57621642068651
      ]
    },
    "record_timestamp": "2019-03-04T10:45:32+01:00"
  },
  {
    "datasetid": "recup-verre",
    "recordid": "35a8977436f36b9451375814a3239a4cd496aa57",
    "fields": {
      "commune": "TOULOUSE",
      "adresse": "AVENUE DES AVIONS",
      "code_com": "31555",
      "geo_point_2d": [
        43.57684140559424,
        1.459925104705272
      ],
      "dmt_type": "Verre",
      "geo_shape": {
        "type": "Point",
        "coordinates": [
          1.459925104705272,
          43.57684140559424
        ]
      },
      "id": "TLSVE5021"
    },
    "geometry": {
      "type": "Point",
      "coordinates": [
        1.459925104705272,
        43.57684140559424
      ]
    },
    "record_timestamp": "2019-03-04T10:45:32+01:00"
  },
  {
    "datasetid": "recup-verre",
    "recordid": "09ab96b8e585b670f2fc25c70f950c4181df370b",
    "fields": {
      "commune": "TOULOUSE",
      "adresse": "FACE RUE MERCIE",
      "code_com": "31555",
      "geo_point_2d": [
        43.601538390136234,
        1.445697963835655
      ],
      "dmt_type": "Verre",
      "geo_shape": {
        "type": "Point",
        "coordinates": [
          1.445697963835655,
          43.601538390136234
        ]
      },
      "id": "TLSVE5064"
    },
    "geometry": {
      "type": "Point",
      "coordinates": [
        1.445697963835655,
        43.601538390136234
      ]
    },
    "record_timestamp": "2019-03-04T10:45:32+01:00"
  },
  {
    "datasetid": "recup-verre",
    "recordid": "98c33b2b9e0da90c09ab2563097a180e0f60eb66",
    "fields": {
      "commune": "TOULOUSE",
      "adresse": "BOULEVARD DELTOUR / REDOND ALAIN GAZEAUD",
      "code_com": "31555",
      "geo_point_2d": [
        43.59158598288947,
        1.470064477538507
      ],
      "dmt_type": "Verre",
      "geo_shape": {
        "type": "Point",
        "coordinates": [
          1.470064477538507,
          43.59158598288947
        ]
      },
      "id": "TLSVE5360"
    },
    "geometry": {
      "type": "Point",
      "coordinates": [
        1.470064477538507,
        43.59158598288947
      ]
    },
    "record_timestamp": "2019-03-04T10:45:32+01:00"
  },
  {
    "datasetid": "recup-verre",
    "recordid": "c00ae859b81d29a45400a1ca894fdeb4f06be0d0",
    "fields": {
      "commune": "TOULOUSE",
      "adresse": "RUE DE CARCASSONNE / AVENUE DE CASTRES",
      "code_com": "31555",
      "geo_point_2d": [
        43.59670831646587,
        1.483269423633174
      ],
      "dmt_type": "Verre",
      "geo_shape": {
        "type": "Point",
        "coordinates": [
          1.483269423633174,
          43.59670831646587
        ]
      },
      "id": "TLSVE5353"
    },
    "geometry": {
      "type": "Point",
      "coordinates": [
        1.483269423633174,
        43.59670831646587
      ]
    },
    "record_timestamp": "2019-03-04T10:45:32+01:00"
  },
  {
    "datasetid": "recup-verre",
    "recordid": "6e266a4da450f1f1f051c1aa2a9203868b384ecb",
    "fields": {
      "commune": "TOULOUSE",
      "adresse": "4 RUE MONIE / AVENUE JEAN CHAUBET",
      "code_com": "31555",
      "geo_point_2d": [
        43.60382868248412,
        1.472972564991845
      ],
      "dmt_type": "Verre",
      "geo_shape": {
        "type": "Point",
        "coordinates": [
          1.472972564991845,
          43.60382868248412
        ]
      },
      "id": "TLSVE5347"
    },
    "geometry": {
      "type": "Point",
      "coordinates": [
        1.472972564991845,
        43.60382868248412
      ]
    },
    "record_timestamp": "2019-03-04T10:45:32+01:00"
  },
  {
    "datasetid": "recup-verre",
    "recordid": "3660257cc4e7ce351767668fcc77567614ccc0e3",
    "fields": {
      "commune": "TOULOUSE",
      "adresse": "RUE LEDRU-ROLLIN / PLACE BAUDIN",
      "code_com": "31555",
      "geo_point_2d": [
        43.604869182103165,
        1.410012950398352
      ],
      "dmt_type": "Verre",
      "geo_shape": {
        "type": "Point",
        "coordinates": [
          1.410012950398352,
          43.604869182103165
        ]
      },
      "id": "TLSVE5343"
    },
    "geometry": {
      "type": "Point",
      "coordinates": [
        1.410012950398352,
        43.604869182103165
      ]
    },
    "record_timestamp": "2019-03-04T10:45:32+01:00"
  },
  {
    "datasetid": "recup-verre",
    "recordid": "13fd4c31a84c115cda20f3a2021eca0954ea0b19",
    "fields": {
      "commune": "TOULOUSE",
      "adresse": "56 CHEMIN DU CHATEAU DE L'HERS",
      "code_com": "31555",
      "geo_point_2d": [
        43.59978978434631,
        1.484212594897347
      ],
      "dmt_type": "Verre",
      "geo_shape": {
        "type": "Point",
        "coordinates": [
          1.484212594897347,
          43.59978978434631
        ]
      },
      "id": "TLSVE5352"
    },
    "geometry": {
      "type": "Point",
      "coordinates": [
        1.484212594897347,
        43.59978978434631
      ]
    },
    "record_timestamp": "2019-03-04T10:45:32+01:00"
  },
  {
    "datasetid": "recup-verre",
    "recordid": "cd914e42360adeebc61ef3f6c11cf5753cc5f4bc",
    "fields": {
      "commune": "TOULOUSE",
      "adresse": "2 AVENUE DES ARENES ROMAINES",
      "code_com": "31555",
      "geo_point_2d": [
        43.6132374984473,
        1.397122232373798
      ],
      "dmt_type": "Verre",
      "geo_shape": {
        "type": "Point",
        "coordinates": [
          1.397122232373798,
          43.6132374984473
        ]
      },
      "id": "TLSVE5344"
    },
    "geometry": {
      "type": "Point",
      "coordinates": [
        1.397122232373798,
        43.6132374984473
      ]
    },
    "record_timestamp": "2019-03-04T10:45:32+01:00"
  },
  {
    "datasetid": "recup-verre",
    "recordid": "8cdf7197d7377e4d1d7018c05fa98cd432fc170a",
    "fields": {
      "commune": "TOULOUSE",
      "adresse": "BOULEVARD GABRIEL KOENIGS",
      "code_com": "31555",
      "geo_point_2d": [
        43.5945007871647,
        1.419052227686837
      ],
      "dmt_type": "Verre",
      "geo_shape": {
        "type": "Point",
        "coordinates": [
          1.419052227686837,
          43.5945007871647
        ]
      },
      "id": "TLSVE5341"
    },
    "geometry": {
      "type": "Point",
      "coordinates": [
        1.419052227686837,
        43.5945007871647
      ]
    },
    "record_timestamp": "2019-03-04T10:45:32+01:00"
  },
  {
    "datasetid": "recup-verre",
    "recordid": "1d9db509abf537bfb11439216d342d2d0ca85ca7",
    "fields": {
      "commune": "TOULOUSE",
      "adresse": "12 RUE FRANCOIS GALABERT",
      "code_com": "31555",
      "geo_point_2d": [
        43.60216319726207,
        1.478867682116242
      ],
      "dmt_type": "Verre",
      "geo_shape": {
        "type": "Point",
        "coordinates": [
          1.478867682116242,
          43.60216319726207
        ]
      },
      "id": "TLSVE5362"
    },
    "geometry": {
      "type": "Point",
      "coordinates": [
        1.478867682116242,
        43.60216319726207
      ]
    },
    "record_timestamp": "2019-03-04T10:45:32+01:00"
  },
  {
    "datasetid": "recup-verre",
    "recordid": "aa61f49f4dfb812f8e6f6ecd40de628ccaa63902",
    "fields": {
      "commune": "TOULOUSE",
      "adresse": "AVENUE JEAN CHAUBET",
      "code_com": "31555",
      "geo_point_2d": [
        43.606118761242925,
        1.482090286185945
      ],
      "dmt_type": "Verre",
      "geo_shape": {
        "type": "Point",
        "coordinates": [
          1.482090286185945,
          43.606118761242925
        ]
      },
      "id": "TLSVE5346"
    },
    "geometry": {
      "type": "Point",
      "coordinates": [
        1.482090286185945,
        43.606118761242925
      ]
    },
    "record_timestamp": "2019-03-04T10:45:32+01:00"
  },
  {
    "datasetid": "recup-verre",
    "recordid": "29f99e1038619b8815dbf6ff608b682f7eeb0c2b",
    "fields": {
      "commune": "TOULOUSE",
      "adresse": "CHEMIN DE DUROUX",
      "code_com": "31555",
      "geo_point_2d": [
        43.5960003531873,
        1.478160351919932
      ],
      "dmt_type": "Verre",
      "geo_shape": {
        "type": "Point",
        "coordinates": [
          1.478160351919932,
          43.5960003531873
        ]
      },
      "id": "TLSVE5350"
    },
    "geometry": {
      "type": "Point",
      "coordinates": [
        1.478160351919932,
        43.5960003531873
      ]
    },
    "record_timestamp": "2019-03-04T10:45:32+01:00"
  },
  {
    "datasetid": "recup-verre",
    "recordid": "8771ff16f25443ccf05eb4a1d8eb3398196f41f9",
    "fields": {
      "commune": "TOULOUSE",
      "adresse": "PLACE ROSINE BET / AVENUE DU PRESIDENT DOUMERGUE",
      "code_com": "31555",
      "geo_point_2d": [
        43.623519934482765,
        1.46731302415195
      ],
      "dmt_type": "Verre",
      "geo_shape": {
        "type": "Point",
        "coordinates": [
          1.46731302415195,
          43.623519934482765
        ]
      },
      "id": "TLSVE5237"
    },
    "geometry": {
      "type": "Point",
      "coordinates": [
        1.46731302415195,
        43.623519934482765
      ]
    },
    "record_timestamp": "2019-03-04T10:45:32+01:00"
  },
  {
    "datasetid": "recup-verre",
    "recordid": "885de5227e0155a1a81a11f4698dee9b49f4ace2",
    "fields": {
      "commune": "TOULOUSE",
      "adresse": "CHEMIN DES IZARDS / RUE DU COLONEL PAILLOLE",
      "code_com": "31555",
      "geo_point_2d": [
        43.63806987580994,
        1.444231672647095
      ],
      "dmt_type": "Verre",
      "geo_shape": {
        "type": "Point",
        "coordinates": [
          1.444231672647095,
          43.63806987580994
        ]
      },
      "id": "TLSVE5244"
    },
    "geometry": {
      "type": "Point",
      "coordinates": [
        1.444231672647095,
        43.63806987580994
      ]
    },
    "record_timestamp": "2019-03-04T10:45:32+01:00"
  },
  {
    "datasetid": "recup-verre",
    "recordid": "ac7050ca56ddd3e1747044d2950ca535f26424e0",
    "fields": {
      "commune": "TOULOUSE",
      "adresse": "RUE ALEXANDRE SOUMET / RUE DU BOIS FLEURI",
      "code_com": "31555",
      "geo_point_2d": [
        43.60574401156248,
        1.477767215830335
      ],
      "dmt_type": "Verre",
      "geo_shape": {
        "type": "Point",
        "coordinates": [
          1.477767215830335,
          43.60574401156248
        ]
      },
      "id": "TLSVE5252"
    },
    "geometry": {
      "type": "Point",
      "coordinates": [
        1.477767215830335,
        43.60574401156248
      ]
    },
    "record_timestamp": "2019-03-04T10:45:32+01:00"
  },
  {
    "datasetid": "recup-verre",
    "recordid": "827b3dd5570c9fb941aae2bd7aae2b028074aa11",
    "fields": {
      "commune": "TOULOUSE",
      "adresse": "25 AVENUE HENRI GUILLAUMET",
      "code_com": "31555",
      "geo_point_2d": [
        43.61436201315066,
        1.469435378118393
      ],
      "dmt_type": "Verre",
      "geo_shape": {
        "type": "Point",
        "coordinates": [
          1.469435378118393,
          43.61436201315066
        ]
      },
      "id": "TLSVE5245"
    },
    "geometry": {
      "type": "Point",
      "coordinates": [
        1.469435378118393,
        43.61436201315066
      ]
    },
    "record_timestamp": "2019-03-04T10:45:32+01:00"
  },
  {
    "datasetid": "recup-verre",
    "recordid": "3681cd0a01389ae7b8dce0f50a0dd24f367d5553",
    "fields": {
      "commune": "TOULOUSE",
      "adresse": "RUE PERIOLE / CHEMINOT",
      "code_com": "31555",
      "geo_point_2d": [
        43.6148198553796,
        1.455837355686981
      ],
      "dmt_type": "Verre",
      "geo_shape": {
        "type": "Point",
        "coordinates": [
          1.455837355686981,
          43.6148198553796
        ]
      },
      "id": "TLSVE5255"
    },
    "geometry": {
      "type": "Point",
      "coordinates": [
        1.455837355686981,
        43.6148198553796
      ]
    },
    "record_timestamp": "2019-03-04T10:45:32+01:00"
  },
  {
    "datasetid": "recup-verre",
    "recordid": "89102c3b5353d4c4752a13e8b594b865e15c6367",
    "fields": {
      "commune": "TOULOUSE",
      "adresse": "RUE ANDRE VASSEUR",
      "code_com": "31555",
      "geo_point_2d": [
        43.63334234753636,
        1.469592335732444
      ],
      "dmt_type": "Verre",
      "geo_shape": {
        "type": "Point",
        "coordinates": [
          1.469592335732444,
          43.63334234753636
        ]
      },
      "id": "TLSVE5222"
    },
    "geometry": {
      "type": "Point",
      "coordinates": [
        1.469592335732444,
        43.63334234753636
      ]
    },
    "record_timestamp": "2019-03-04T10:45:32+01:00"
  },
  {
    "datasetid": "recup-verre",
    "recordid": "f3ac32adda4b8c66e0fa92e02c999693f9a36370",
    "fields": {
      "commune": "TOULOUSE",
      "adresse": "IMPASSE DU BARON",
      "code_com": "31555",
      "geo_point_2d": [
        43.643351102493476,
        1.435497548102211
      ],
      "dmt_type": "Verre",
      "geo_shape": {
        "type": "Point",
        "coordinates": [
          1.435497548102211,
          43.643351102493476
        ]
      },
      "id": "TLSVE5227"
    },
    "geometry": {
      "type": "Point",
      "coordinates": [
        1.435497548102211,
        43.643351102493476
      ]
    },
    "record_timestamp": "2019-03-04T10:45:32+01:00"
  },
  {
    "datasetid": "recup-verre",
    "recordid": "d72eb8c171be7699fb4ff7f396b37c5e02bcca59",
    "fields": {
      "commune": "TOULOUSE",
      "adresse": "3 AVENUE DU PARC",
      "code_com": "31555",
      "geo_point_2d": [
        43.62043971330077,
        1.470457109811615
      ],
      "dmt_type": "Verre",
      "geo_shape": {
        "type": "Point",
        "coordinates": [
          1.470457109811615,
          43.62043971330077
        ]
      },
      "id": "TLSVE5238"
    },
    "geometry": {
      "type": "Point",
      "coordinates": [
        1.470457109811615,
        43.62043971330077
      ]
    },
    "record_timestamp": "2019-03-04T10:45:32+01:00"
  },
  {
    "datasetid": "recup-verre",
    "recordid": "0fe248af0977548aef5920dad25951a86166150c",
    "fields": {
      "commune": "TOULOUSE",
      "adresse": "RUE ROUBICHOU",
      "code_com": "31555",
      "geo_point_2d": [
        43.626849732832326,
        1.465819557676814
      ],
      "dmt_type": "Verre",
      "geo_shape": {
        "type": "Point",
        "coordinates": [
          1.465819557676814,
          43.626849732832326
        ]
      },
      "id": "TLSVE5232"
    },
    "geometry": {
      "type": "Point",
      "coordinates": [
        1.465819557676814,
        43.626849732832326
      ]
    },
    "record_timestamp": "2019-03-04T10:45:32+01:00"
  },
  {
    "datasetid": "recup-verre",
    "recordid": "ac12657cef5bed75e90646b241b31a30103292c3",
    "fields": {
      "commune": "TOULOUSE",
      "adresse": "RUE NOULET",
      "code_com": "31555",
      "geo_point_2d": [
        43.5870463458477,
        1.463147620815595
      ],
      "dmt_type": "Verre",
      "geo_shape": {
        "type": "Point",
        "coordinates": [
          1.463147620815595,
          43.5870463458477
        ]
      },
      "id": "TLSVE5213"
    },
    "geometry": {
      "type": "Point",
      "coordinates": [
        1.463147620815595,
        43.5870463458477
      ]
    },
    "record_timestamp": "2019-03-04T10:45:32+01:00"
  },
  {
    "datasetid": "recup-verre",
    "recordid": "e9efda6418c803c23ac52eb934b4b38824e8d2aa",
    "fields": {
      "commune": "TOULOUSE",
      "adresse": "AVENUE ST EXUPERY / PLACE DE L ORMEAU",
      "code_com": "31555",
      "geo_point_2d": [
        43.579174266362344,
        1.483112442763754
      ],
      "dmt_type": "Verre",
      "geo_shape": {
        "type": "Point",
        "coordinates": [
          1.483112442763754,
          43.579174266362344
        ]
      },
      "id": "TLSVE5397"
    },
    "geometry": {
      "type": "Point",
      "coordinates": [
        1.483112442763754,
        43.579174266362344
      ]
    },
    "record_timestamp": "2019-03-04T10:45:32+01:00"
  },
  {
    "datasetid": "recup-verre",
    "recordid": "f5f9b20f026e8b392260e9d6a2c759d45c317219",
    "fields": {
      "commune": "TOULOUSE",
      "adresse": "PLACE MARIUS PINEL / RUE GALLILEE",
      "code_com": "31555",
      "geo_point_2d": [
        43.602870971369555,
        1.466763082368097
      ],
      "dmt_type": "Verre",
      "geo_shape": {
        "type": "Point",
        "coordinates": [
          1.466763082368097,
          43.602870971369555
        ]
      },
      "id": "TLSVE5387"
    },
    "geometry": {
      "type": "Point",
      "coordinates": [
        1.466763082368097,
        43.602870971369555
      ]
    },
    "record_timestamp": "2019-03-04T10:45:32+01:00"
  },
  {
    "datasetid": "recup-verre",
    "recordid": "e892c260a21a19d67547c2c9ccb86d57e53ca4f2",
    "fields": {
      "commune": "TOULOUSE",
      "adresse": "170 AVENUE DE LESPINET",
      "code_com": "31555",
      "geo_point_2d": [
        43.57409211570034,
        1.473601754082089
      ],
      "dmt_type": "Verre",
      "geo_shape": {
        "type": "Point",
        "coordinates": [
          1.473601754082089,
          43.57409211570034
        ]
      },
      "id": "TLSVE5404"
    },
    "geometry": {
      "type": "Point",
      "coordinates": [
        1.473601754082089,
        43.57409211570034
      ]
    },
    "record_timestamp": "2019-03-04T10:45:32+01:00"
  },
  {
    "datasetid": "recup-verre",
    "recordid": "478b301999998c8035114bb8ed77323ea34c70ac",
    "fields": {
      "commune": "TOULOUSE",
      "adresse": "CHEMIN DE LA FLAMBERE",
      "code_com": "31555",
      "geo_point_2d": [
        43.611114251395925,
        1.392013184338931
      ],
      "dmt_type": "Verre",
      "geo_shape": {
        "type": "Point",
        "coordinates": [
          1.392013184338931,
          43.611114251395925
        ]
      },
      "id": "TLSVE5426"
    },
    "geometry": {
      "type": "Point",
      "coordinates": [
        1.392013184338931,
        43.611114251395925
      ]
    },
    "record_timestamp": "2019-03-04T10:45:32+01:00"
  },
  {
    "datasetid": "recup-verre",
    "recordid": "92e8aabdd7ee52e77b7613906c64432592934383",
    "fields": {
      "commune": "TOULOUSE",
      "adresse": "ALLEE DE LA LIMAGNE",
      "code_com": "31555",
      "geo_point_2d": [
        43.61998134269058,
        1.399401583647214
      ],
      "dmt_type": "Verre",
      "geo_shape": {
        "type": "Point",
        "coordinates": [
          1.399401583647214,
          43.61998134269058
        ]
      },
      "id": "TLSVE5427"
    },
    "geometry": {
      "type": "Point",
      "coordinates": [
        1.399401583647214,
        43.61998134269058
      ]
    },
    "record_timestamp": "2019-03-04T10:45:32+01:00"
  },
  {
    "datasetid": "recup-verre",
    "recordid": "25e5e610272414417ebb75939fdf29a81a02b07a",
    "fields": {
      "commune": "TOULOUSE",
      "adresse": "AVENUE LUCIEN BAROUX",
      "code_com": "31555",
      "geo_point_2d": [
        43.59133616548986,
        1.478946424630476
      ],
      "dmt_type": "Verre",
      "geo_shape": {
        "type": "Point",
        "coordinates": [
          1.478946424630476,
          43.59133616548986
        ]
      },
      "id": "TLSVE5374"
    },
    "geometry": {
      "type": "Point",
      "coordinates": [
        1.478946424630476,
        43.59133616548986
      ]
    },
    "record_timestamp": "2019-03-04T10:45:32+01:00"
  },
  {
    "datasetid": "recup-verre",
    "recordid": "c93476903c4d905dc03522b208142bae6ce60a34",
    "fields": {
      "commune": "TOULOUSE",
      "adresse": "28 AVENUE DE CASTRES",
      "code_com": "31555",
      "geo_point_2d": [
        43.6006641290473,
        1.469985755416776
      ],
      "dmt_type": "Verre",
      "geo_shape": {
        "type": "Point",
        "coordinates": [
          1.469985755416776,
          43.6006641290473
        ]
      },
      "id": "TLSVE5365"
    },
    "geometry": {
      "type": "Point",
      "coordinates": [
        1.469985755416776,
        43.6006641290473
      ]
    },
    "record_timestamp": "2019-03-04T10:45:32+01:00"
  },
  {
    "datasetid": "recup-verre",
    "recordid": "af2139f252e141b36bff0c0b02a033850e83b15b",
    "fields": {
      "commune": "TOULOUSE",
      "adresse": "RUE CARLOS GARDEL",
      "code_com": "31555",
      "geo_point_2d": [
        43.614194988221676,
        1.394999984682597
      ],
      "dmt_type": "Verre",
      "geo_shape": {
        "type": "Point",
        "coordinates": [
          1.394999984682597,
          43.614194988221676
        ]
      },
      "id": "TLSVE5421"
    },
    "geometry": {
      "type": "Point",
      "coordinates": [
        1.394999984682597,
        43.614194988221676
      ]
    },
    "record_timestamp": "2019-03-04T10:45:32+01:00"
  },
  {
    "datasetid": "recup-verre",
    "recordid": "dd72c5a7572fc8ce2bb224c4638142ce1f9d0a64",
    "fields": {
      "commune": "TOULOUSE",
      "adresse": "RUE SAINTE-CLAIRE",
      "code_com": "31555",
      "geo_point_2d": [
        43.593460113059315,
        1.483033656188034
      ],
      "dmt_type": "Verre",
      "geo_shape": {
        "type": "Point",
        "coordinates": [
          1.483033656188034,
          43.593460113059315
        ]
      },
      "id": "TLSVE5368"
    },
    "geometry": {
      "type": "Point",
      "coordinates": [
        1.483033656188034,
        43.593460113059315
      ]
    },
    "record_timestamp": "2019-03-04T10:45:32+01:00"
  },
  {
    "datasetid": "recup-verre",
    "recordid": "cc21198af0018121162b5254d49a270c79f4351c",
    "fields": {
      "commune": "TOULOUSE",
      "adresse": "RUE DE L'ISERE",
      "code_com": "31555",
      "geo_point_2d": [
        43.59450128111781,
        1.491208175117326
      ],
      "dmt_type": "Verre",
      "geo_shape": {
        "type": "Point",
        "coordinates": [
          1.491208175117326,
          43.59450128111781
        ]
      },
      "id": "TLSVE5400"
    },
    "geometry": {
      "type": "Point",
      "coordinates": [
        1.491208175117326,
        43.59450128111781
      ]
    },
    "record_timestamp": "2019-03-04T10:45:32+01:00"
  },
  {
    "datasetid": "recup-verre",
    "recordid": "2ffef16ffd481c1ba5e64b0cd33380f9f23c4741",
    "fields": {
      "commune": "TOULOUSE",
      "adresse": "ALLEE DE BARCELONE/BLV LECLERC",
      "code_com": "31555",
      "geo_point_2d": [
        43.60661804174545,
        1.430527853428639
      ],
      "dmt_type": "Verre",
      "geo_shape": {
        "type": "Point",
        "coordinates": [
          1.430527853428639,
          43.60661804174545
        ]
      },
      "id": "TLSVE5152"
    },
    "geometry": {
      "type": "Point",
      "coordinates": [
        1.430527853428639,
        43.60661804174545
      ]
    },
    "record_timestamp": "2019-03-04T10:45:32+01:00"
  },
  {
    "datasetid": "recup-verre",
    "recordid": "85cb700c65da40860c2816c994f96ef416aa36d1",
    "fields": {
      "commune": "TOULOUSE",
      "adresse": "BLV DES PLATANES / RUE GERMINAL",
      "code_com": "31555",
      "geo_point_2d": [
        43.58650474705162,
        1.439567254340964
      ],
      "dmt_type": "Verre",
      "geo_shape": {
        "type": "Point",
        "coordinates": [
          1.439567254340964,
          43.58650474705162
        ]
      },
      "id": "TLSVE5124"
    },
    "geometry": {
      "type": "Point",
      "coordinates": [
        1.439567254340964,
        43.58650474705162
      ]
    },
    "record_timestamp": "2019-03-04T10:45:32+01:00"
  },
  {
    "datasetid": "recup-verre",
    "recordid": "129e1f063ff0a53b3fca68deb1a1d921320e0a32",
    "fields": {
      "commune": "TOULOUSE",
      "adresse": "190 ROUTE DE LAUNAGUET",
      "code_com": "31555",
      "geo_point_2d": [
        43.64453604008522,
        1.439173504143607
      ],
      "dmt_type": "Verre",
      "geo_shape": {
        "type": "Point",
        "coordinates": [
          1.439173504143607,
          43.64453604008522
        ]
      },
      "id": "TLSVE5168"
    },
    "geometry": {
      "type": "Point",
      "coordinates": [
        1.439173504143607,
        43.64453604008522
      ]
    },
    "record_timestamp": "2019-03-04T10:45:32+01:00"
  },
  {
    "datasetid": "recup-verre",
    "recordid": "09187bbcb852786ca119ed0cb1c445027b8e1fbb",
    "fields": {
      "commune": "TOULOUSE",
      "adresse": "BLV DE LA MARQUETTE",
      "code_com": "31555",
      "geo_point_2d": [
        43.61277978109779,
        1.430056164233772
      ],
      "dmt_type": "Verre",
      "geo_shape": {
        "type": "Point",
        "coordinates": [
          1.430056164233772,
          43.61277978109779
        ]
      },
      "id": "TLSVE5114"
    },
    "geometry": {
      "type": "Point",
      "coordinates": [
        1.430056164233772,
        43.61277978109779
      ]
    },
    "record_timestamp": "2019-03-04T10:45:32+01:00"
  },
  {
    "datasetid": "recup-verre",
    "recordid": "c93c17d160d9aee0616ac5cab9d3ffba3e5f96f9",
    "fields": {
      "commune": "TOULOUSE",
      "adresse": "BOULEVARD DELACOURTIE",
      "code_com": "31555",
      "geo_point_2d": [
        43.58383918486309,
        1.449706852369236
      ],
      "dmt_type": "Verre",
      "geo_shape": {
        "type": "Point",
        "coordinates": [
          1.449706852369236,
          43.58383918486309
        ]
      },
      "id": "TLSVE5131"
    },
    "geometry": {
      "type": "Point",
      "coordinates": [
        1.449706852369236,
        43.58383918486309
      ]
    },
    "record_timestamp": "2019-03-04T10:45:32+01:00"
  },
  {
    "datasetid": "recup-verre",
    "recordid": "a1485f3b564d8d4996cf067d64ac2446dd05f9a9",
    "fields": {
      "commune": "TOULOUSE",
      "adresse": "116 ROUTE DE BLAGNAC",
      "code_com": "31555",
      "geo_point_2d": [
        43.61769191562783,
        1.407890545525414
      ],
      "dmt_type": "Verre",
      "geo_shape": {
        "type": "Point",
        "coordinates": [
          1.407890545525414,
          43.61769191562783
        ]
      },
      "id": "TLSVE5157"
    },
    "geometry": {
      "type": "Point",
      "coordinates": [
        1.407890545525414,
        43.61769191562783
      ]
    },
    "record_timestamp": "2019-03-04T10:45:32+01:00"
  },
  {
    "datasetid": "recup-verre",
    "recordid": "ba6b2a99a1a798269eb4747922d63cf7cd81d776",
    "fields": {
      "commune": "TOULOUSE",
      "adresse": "AVENUE PAUL SEJOURNE",
      "code_com": "31555",
      "geo_point_2d": [
        43.60620166530504,
        1.427934013043046
      ],
      "dmt_type": "Verre",
      "geo_shape": {
        "type": "Point",
        "coordinates": [
          1.427934013043046,
          43.60620166530504
        ]
      },
      "id": "TLSVE5149"
    },
    "geometry": {
      "type": "Point",
      "coordinates": [
        1.427934013043046,
        43.60620166530504
      ]
    },
    "record_timestamp": "2019-03-04T10:45:32+01:00"
  },
  {
    "datasetid": "recup-verre",
    "recordid": "fe674b78ff0dd5c115db2d1d4a280defb29c9521",
    "fields": {
      "commune": "TOULOUSE",
      "adresse": "ALLEE DE BARCELONE",
      "code_com": "31555",
      "geo_point_2d": [
        43.60944914040431,
        1.422746288257675
      ],
      "dmt_type": "Verre",
      "geo_shape": {
        "type": "Point",
        "coordinates": [
          1.422746288257675,
          43.60944914040431
        ]
      },
      "id": "TLSVE5116"
    },
    "geometry": {
      "type": "Point",
      "coordinates": [
        1.422746288257675,
        43.60944914040431
      ]
    },
    "record_timestamp": "2019-03-04T10:45:32+01:00"
  },
  {
    "datasetid": "recup-verre",
    "recordid": "c1897efa19bbfaee708c3b1994f95d1e47256783",
    "fields": {
      "commune": "TOULOUSE",
      "adresse": "AVENUE DE L'URSS",
      "code_com": "31555",
      "geo_point_2d": [
        43.581589957138945,
        1.448920864674647
      ],
      "dmt_type": "Verre",
      "geo_shape": {
        "type": "Point",
        "coordinates": [
          1.448920864674647,
          43.581589957138945
        ]
      },
      "id": "TLSVE5128"
    },
    "geometry": {
      "type": "Point",
      "coordinates": [
        1.448920864674647,
        43.581589957138945
      ]
    },
    "record_timestamp": "2019-03-04T10:45:32+01:00"
  },
  {
    "datasetid": "recup-verre",
    "recordid": "858f6195036b13a88356550d9253fb67ffb28a2b",
    "fields": {
      "commune": "TOULOUSE",
      "adresse": "RUE BROUARDEL",
      "code_com": "31555",
      "geo_point_2d": [
        43.61148916203154,
        1.424632699245342
      ],
      "dmt_type": "Verre",
      "geo_shape": {
        "type": "Point",
        "coordinates": [
          1.424632699245342,
          43.61148916203154
        ]
      },
      "id": "TLSVE5115"
    },
    "geometry": {
      "type": "Point",
      "coordinates": [
        1.424632699245342,
        43.61148916203154
      ]
    },
    "record_timestamp": "2019-03-04T10:45:32+01:00"
  },
  {
    "datasetid": "recup-verre",
    "recordid": "259aa088a85eeffde3237dec5fc2e058b447bb37",
    "fields": {
      "commune": "TOULOUSE",
      "adresse": "RUE SAINTE-LUCIE / RUE DES ARCS CYPRIEN",
      "code_com": "31555",
      "geo_point_2d": [
        43.59362633247743,
        1.42958480668173
      ],
      "dmt_type": "Verre",
      "geo_shape": {
        "type": "Point",
        "coordinates": [
          1.42958480668173,
          43.59362633247743
        ]
      },
      "id": "TLSVE5310"
    },
    "geometry": {
      "type": "Point",
      "coordinates": [
        1.42958480668173,
        43.59362633247743
      ]
    },
    "record_timestamp": "2019-03-04T10:45:32+01:00"
  },
  {
    "datasetid": "recup-verre",
    "recordid": "a9c3969cac950606c0943c4d926481fad67429e2",
    "fields": {
      "commune": "TOULOUSE",
      "adresse": "RUE VILLENEUVE / RUE DES 3 COLONNES",
      "code_com": "31555",
      "geo_point_2d": [
        43.59820705689788,
        1.429270345066542
      ],
      "dmt_type": "Verre",
      "geo_shape": {
        "type": "Point",
        "coordinates": [
          1.429270345066542,
          43.59820705689788
        ]
      },
      "id": "TLSVE5303"
    },
    "geometry": {
      "type": "Point",
      "coordinates": [
        1.429270345066542,
        43.59820705689788
      ]
    },
    "record_timestamp": "2019-03-04T10:45:32+01:00"
  },
  {
    "datasetid": "recup-verre",
    "recordid": "279c1e0f95f14ae7b6b04784a57a0ea7e131862d",
    "fields": {
      "commune": "FENOUILLET",
      "adresse": "COURTE PAILLE C.CIAL CASINO-AVENUE SPORTS",
      "code_com": "31182",
      "geo_point_2d": [
        43.68686045574442,
        1.40394187023572
      ],
      "dmt_type": "Verre",
      "geo_shape": {
        "type": "Point",
        "coordinates": [
          1.40394187023572,
          43.68686045574442
        ]
      },
      "id": "FENVE5001"
    },
    "geometry": {
      "type": "Point",
      "coordinates": [
        1.40394187023572,
        43.68686045574442
      ]
    },
    "record_timestamp": "2019-03-04T10:45:32+01:00"
  },
  {
    "datasetid": "recup-verre",
    "recordid": "6fa3946edb197d6ff6cebbea370e252c82054d08",
    "fields": {
      "commune": "FENOUILLET",
      "adresse": "GIRATOIRE AVENUE DES SPORTS-RUE DU BOSC",
      "code_com": "31182",
      "geo_point_2d": [
        43.6832404564844,
        1.400161924884064
      ],
      "dmt_type": "Verre",
      "geo_shape": {
        "type": "Point",
        "coordinates": [
          1.400161924884064,
          43.6832404564844
        ]
      },
      "id": "FENVE5014"
    },
    "geometry": {
      "type": "Point",
      "coordinates": [
        1.400161924884064,
        43.6832404564844
      ]
    },
    "record_timestamp": "2019-03-04T10:45:32+01:00"
  },
  {
    "datasetid": "recup-verre",
    "recordid": "570ef1170f543a5ff14984c57fcfe10390ff671c",
    "fields": {
      "commune": "FENOUILLET",
      "adresse": "SALLE DES FETES-RUE DE L EGLISE",
      "code_com": "31182",
      "geo_point_2d": [
        43.679026237018746,
        1.389391328239389
      ],
      "dmt_type": "Verre",
      "geo_shape": {
        "type": "Point",
        "coordinates": [
          1.389391328239389,
          43.679026237018746
        ]
      },
      "id": "FENVE5006"
    },
    "geometry": {
      "type": "Point",
      "coordinates": [
        1.389391328239389,
        43.679026237018746
      ]
    },
    "record_timestamp": "2019-03-04T10:45:32+01:00"
  },
  {
    "datasetid": "recup-verre",
    "recordid": "eaa1d012ecf89aeaf5d864f1fc84d48a5c08ee51",
    "fields": {
      "commune": "COLOMIERS",
      "adresse": "RESTAURANT LE FLORENCE-ALLEE BEARN",
      "code_com": "31149",
      "geo_point_2d": [
        43.61275933757903,
        1.329438140480921
      ],
      "dmt_type": "Verre",
      "geo_shape": {
        "type": "Point",
        "coordinates": [
          1.329438140480921,
          43.61275933757903
        ]
      },
      "id": "COLVE5058"
    },
    "geometry": {
      "type": "Point",
      "coordinates": [
        1.329438140480921,
        43.61275933757903
      ]
    },
    "record_timestamp": "2019-03-04T10:45:32+01:00"
  },
  {
    "datasetid": "recup-verre",
    "recordid": "90acbcce5fa8060249faf23f9b80f71062f46269",
    "fields": {
      "commune": "FONBEAUZARD",
      "adresse": "SALLE DES FETES-RUE DES VIOLETTES",
      "code_com": "31186",
      "geo_point_2d": [
        43.67866049133813,
        1.42884190818348
      ],
      "dmt_type": "Verre",
      "geo_shape": {
        "type": "Point",
        "coordinates": [
          1.42884190818348,
          43.67866049133813
        ]
      },
      "id": "FONVE5006"
    },
    "geometry": {
      "type": "Point",
      "coordinates": [
        1.42884190818348,
        43.67866049133813
      ]
    },
    "record_timestamp": "2019-03-04T10:45:32+01:00"
  },
  {
    "datasetid": "recup-verre",
    "recordid": "f62876e782df92daa7133f9f9988a079e3004368",
    "fields": {
      "commune": "COLOMIERS",
      "adresse": "RESTAURANT MUNICIPAL AV LOURON",
      "code_com": "31149",
      "geo_point_2d": [
        43.60282054047694,
        1.319211791222216
      ],
      "dmt_type": "Verre",
      "geo_shape": {
        "type": "Point",
        "coordinates": [
          1.319211791222216,
          43.60282054047694
        ]
      },
      "id": "COLVE5060"
    },
    "geometry": {
      "type": "Point",
      "coordinates": [
        1.319211791222216,
        43.60282054047694
      ]
    },
    "record_timestamp": "2019-03-04T10:45:32+01:00"
  },
  {
    "datasetid": "recup-verre",
    "recordid": "b93ebe758730b9ca9806a0e0412c323e5b3619f7",
    "fields": {
      "commune": "GAGNAC SUR GARONNE",
      "adresse": "STATION EPURATION",
      "code_com": "31205",
      "geo_point_2d": [
        43.6986607103412,
        1.371739653346425
      ],
      "dmt_type": "Verre",
      "geo_shape": {
        "type": "Point",
        "coordinates": [
          1.371739653346425,
          43.6986607103412
        ]
      },
      "id": "GAGVE5004"
    },
    "geometry": {
      "type": "Point",
      "coordinates": [
        1.371739653346425,
        43.6986607103412
      ]
    },
    "record_timestamp": "2019-03-04T10:45:32+01:00"
  },
  {
    "datasetid": "recup-verre",
    "recordid": "88bdbc0048e6b4c329e8221640a05dc5f41434a1",
    "fields": {
      "commune": "FENOUILLET",
      "adresse": "EGLISE-RUE DE L EGLISE",
      "code_com": "31182",
      "geo_point_2d": [
        43.68326936997561,
        1.383649547736697
      ],
      "dmt_type": "Verre",
      "geo_shape": {
        "type": "Point",
        "coordinates": [
          1.383649547736697,
          43.68326936997561
        ]
      },
      "id": "FENVE5007"
    },
    "geometry": {
      "type": "Point",
      "coordinates": [
        1.383649547736697,
        43.68326936997561
      ]
    },
    "record_timestamp": "2019-03-04T10:45:32+01:00"
  },
  {
    "datasetid": "recup-verre",
    "recordid": "05ef55377429907f895cfe8fff4b7c31da33914a",
    "fields": {
      "commune": "COLOMIERS",
      "adresse": "RESTAURANT LE SOCRATE",
      "code_com": "31149",
      "geo_point_2d": [
        43.614170760805266,
        1.308328768779588
      ],
      "dmt_type": "Verre",
      "geo_shape": {
        "type": "Point",
        "coordinates": [
          1.308328768779588,
          43.614170760805266
        ]
      },
      "id": "COLVE5059"
    },
    "geometry": {
      "type": "Point",
      "coordinates": [
        1.308328768779588,
        43.614170760805266
      ]
    },
    "record_timestamp": "2019-03-04T10:45:32+01:00"
  },
  {
    "datasetid": "recup-verre",
    "recordid": "a0d12bdbf7fee09f9967c6e3ef6bbfcaaebe9619",
    "fields": {
      "commune": "FONBEAUZARD",
      "adresse": "RUE DES TROENES",
      "code_com": "31186",
      "geo_point_2d": [
        43.677150499243304,
        1.433781833930525
      ],
      "dmt_type": "Verre",
      "geo_shape": {
        "type": "Point",
        "coordinates": [
          1.433781833930525,
          43.677150499243304
        ]
      },
      "id": "FONVE5005"
    },
    "geometry": {
      "type": "Point",
      "coordinates": [
        1.433781833930525,
        43.677150499243304
      ]
    },
    "record_timestamp": "2019-03-04T10:45:32+01:00"
  },
  {
    "datasetid": "recup-verre",
    "recordid": "6b44b14638d7ede0e261b48f2420146651e363c2",
    "fields": {
      "commune": "SAINT - ALBAN",
      "adresse": "LOTISSEMENT PALOMBE COLOMBE-ALLEE JEAN MOULIN",
      "code_com": "31467",
      "geo_point_2d": [
        43.68821046791554,
        1.409301908688863
      ],
      "dmt_type": "Verre",
      "geo_shape": {
        "type": "Point",
        "coordinates": [
          1.409301908688863,
          43.68821046791554
        ]
      },
      "id": "STAVE5001"
    },
    "geometry": {
      "type": "Point",
      "coordinates": [
        1.409301908688863,
        43.68821046791554
      ]
    },
    "record_timestamp": "2019-03-04T10:45:32+01:00"
  },
  {
    "datasetid": "recup-verre",
    "recordid": "62a577f2854d5fc3e60b66b3f2807d8379c3d73b",
    "fields": {
      "commune": "SAINT-ORENS-DE-GAMEVILLE",
      "adresse": "SKATE PARK - ROUTE DE LA JURGE",
      "code_com": "31506",
      "geo_point_2d": [
        43.5573704325371,
        1.544351774122412
      ],
      "dmt_type": "Verre",
      "geo_shape": {
        "type": "Point",
        "coordinates": [
          1.544351774122412,
          43.5573704325371
        ]
      },
      "id": "SOGVE5008"
    },
    "geometry": {
      "type": "Point",
      "coordinates": [
        1.544351774122412,
        43.5573704325371
      ]
    },
    "record_timestamp": "2019-03-04T10:45:32+01:00"
  },
  {
    "datasetid": "recup-verre",
    "recordid": "4e37a6d008382720b43b33e9348f6c59560bb73f",
    "fields": {
      "commune": "SAINT - JEAN",
      "adresse": "RUE JEAN MONNET ROND POINT FLOTIS",
      "code_com": "31488",
      "geo_point_2d": [
        43.65082074759066,
        1.51561958671168
      ],
      "dmt_type": "Verre",
      "geo_shape": {
        "type": "Point",
        "coordinates": [
          1.51561958671168,
          43.65082074759066
        ]
      },
      "id": "SJEVE5026"
    },
    "geometry": {
      "type": "Point",
      "coordinates": [
        1.51561958671168,
        43.65082074759066
      ]
    },
    "record_timestamp": "2019-03-04T10:45:32+01:00"
  },
  {
    "datasetid": "recup-verre",
    "recordid": "b9a2245089b657256342e917ecb1648f8a405c90",
    "fields": {
      "commune": "SAINT - JEAN",
      "adresse": "DERRIERE MAIRIE-RUE RIMBAUD",
      "code_com": "31488",
      "geo_point_2d": [
        43.665799448892066,
        1.503067995969719
      ],
      "dmt_type": "Verre",
      "geo_shape": {
        "type": "Point",
        "coordinates": [
          1.503067995969719,
          43.665799448892066
        ]
      },
      "id": "SJEVE5014"
    },
    "geometry": {
      "type": "Point",
      "coordinates": [
        1.503067995969719,
        43.665799448892066
      ]
    },
    "record_timestamp": "2019-03-04T10:45:32+01:00"
  },
  {
    "datasetid": "recup-verre",
    "recordid": "e0a0edd86c89755b3d2bc6292470d242253dd690",
    "fields": {
      "commune": "SAINT - JEAN",
      "adresse": "CRECHE-AVENUE DE LESTANG",
      "code_com": "31488",
      "geo_point_2d": [
        43.67086041282876,
        1.500921852125263
      ],
      "dmt_type": "Verre",
      "geo_shape": {
        "type": "Point",
        "coordinates": [
          1.500921852125263,
          43.67086041282876
        ]
      },
      "id": "SJEVE5004"
    },
    "geometry": {
      "type": "Point",
      "coordinates": [
        1.500921852125263,
        43.67086041282876
      ]
    },
    "record_timestamp": "2019-03-04T10:45:32+01:00"
  },
  {
    "datasetid": "recup-verre",
    "recordid": "417c8a31d23390f9120397e050fd2eab5c048492",
    "fields": {
      "commune": "SAINT - JORY",
      "adresse": "CHEMIN DE BELDOU",
      "code_com": "31490",
      "geo_point_2d": [
        43.734160650358525,
        1.352119596128962
      ],
      "dmt_type": "Verre",
      "geo_shape": {
        "type": "Point",
        "coordinates": [
          1.352119596128962,
          43.734160650358525
        ]
      },
      "id": "SJOVE5003"
    },
    "geometry": {
      "type": "Point",
      "coordinates": [
        1.352119596128962,
        43.734160650358525
      ]
    },
    "record_timestamp": "2019-03-04T10:45:32+01:00"
  },
  {
    "datasetid": "recup-verre",
    "recordid": "43aba8ac445065826243f1506fdfd242817b004f",
    "fields": {
      "commune": "SAINT - ALBAN",
      "adresse": "RUE ST EXUPERY",
      "code_com": "31467",
      "geo_point_2d": [
        43.697720513960064,
        1.405511935427831
      ],
      "dmt_type": "Verre",
      "geo_shape": {
        "type": "Point",
        "coordinates": [
          1.405511935427831,
          43.697720513960064
        ]
      },
      "id": "STAVE5006"
    },
    "geometry": {
      "type": "Point",
      "coordinates": [
        1.405511935427831,
        43.697720513960064
      ]
    },
    "record_timestamp": "2019-03-04T10:45:32+01:00"
  },
  {
    "datasetid": "recup-verre",
    "recordid": "3dc0a673332375004da31d9b87851d4ff35ef4d0",
    "fields": {
      "commune": "SAINT - JEAN",
      "adresse": "RUE DU VALLON",
      "code_com": "31488",
      "geo_point_2d": [
        43.65482045538798,
        1.51080186949719
      ],
      "dmt_type": "Verre",
      "geo_shape": {
        "type": "Point",
        "coordinates": [
          1.51080186949719,
          43.65482045538798
        ]
      },
      "id": "SJEVE5016"
    },
    "geometry": {
      "type": "Point",
      "coordinates": [
        1.51080186949719,
        43.65482045538798
      ]
    },
    "record_timestamp": "2019-03-04T10:45:32+01:00"
  },
  {
    "datasetid": "recup-verre",
    "recordid": "cac3a2d1a12251601da416fe1a2bec735dc23e59",
    "fields": {
      "commune": "SAINT - ALBAN",
      "adresse": "RUE TROENES",
      "code_com": "31467",
      "geo_point_2d": [
        43.682750511656046,
        1.41529181368276
      ],
      "dmt_type": "Verre",
      "geo_shape": {
        "type": "Point",
        "coordinates": [
          1.41529181368276,
          43.682750511656046
        ]
      },
      "id": "STAVE5013"
    },
    "geometry": {
      "type": "Point",
      "coordinates": [
        1.41529181368276,
        43.682750511656046
      ]
    },
    "record_timestamp": "2019-03-04T10:45:32+01:00"
  },
  {
    "datasetid": "recup-verre",
    "recordid": "7be806093df2a7032a2044c2362760616c54365f",
    "fields": {
      "commune": "SAINT - JORY",
      "adresse": "TUCOLE",
      "code_com": "31490",
      "geo_point_2d": [
        43.75326119147821,
        1.370581559401039
      ],
      "dmt_type": "Verre",
      "geo_shape": {
        "type": "Point",
        "coordinates": [
          1.370581559401039,
          43.75326119147821
        ]
      },
      "id": "SJOVE5011"
    },
    "geometry": {
      "type": "Point",
      "coordinates": [
        1.370581559401039,
        43.75326119147821
      ]
    },
    "record_timestamp": "2019-03-04T10:45:32+01:00"
  },
  {
    "datasetid": "recup-verre",
    "recordid": "26d71050a88f57ee955ee35abb1be8c2a3494111",
    "fields": {
      "commune": "BALMA",
      "adresse": "PARKING LES FEUILLANTINES-ROUTE DE GAURE",
      "code_com": "31044",
      "geo_point_2d": [
        43.63321038924426,
        1.506401772315205
      ],
      "dmt_type": "Verre",
      "geo_shape": {
        "type": "Point",
        "coordinates": [
          1.506401772315205,
          43.63321038924426
        ]
      },
      "id": "BALVE5026"
    },
    "geometry": {
      "type": "Point",
      "coordinates": [
        1.506401772315205,
        43.63321038924426
      ]
    },
    "record_timestamp": "2019-03-04T10:45:32+01:00"
  },
  {
    "datasetid": "recup-verre",
    "recordid": "e66c79f19e3bbe3a7d294997d350b0bb92572264",
    "fields": {
      "commune": "BALMA",
      "adresse": "ROND POINT DES AEROSTIERS-AV DES ARENES",
      "code_com": "31044",
      "geo_point_2d": [
        43.60991864973852,
        1.489718490863547
      ],
      "dmt_type": "Verre",
      "geo_shape": {
        "type": "Point",
        "coordinates": [
          1.489718490863547,
          43.60991864973852
        ]
      },
      "id": "BALVE5033"
    },
    "geometry": {
      "type": "Point",
      "coordinates": [
        1.489718490863547,
        43.60991864973852
      ]
    },
    "record_timestamp": "2019-03-04T10:45:32+01:00"
  },
  {
    "datasetid": "recup-verre",
    "recordid": "92d49f83d6a9d78c68afd4040683366737d9f162",
    "fields": {
      "commune": "BALMA",
      "adresse": "PARKING PISCINE-BOULEVARD AS CAMBIOTS",
      "code_com": "31044",
      "geo_point_2d": [
        43.60630042312005,
        1.501871741236937
      ],
      "dmt_type": "Verre",
      "geo_shape": {
        "type": "Point",
        "coordinates": [
          1.501871741236937,
          43.60630042312005
        ]
      },
      "id": "BALVE5027"
    },
    "geometry": {
      "type": "Point",
      "coordinates": [
        1.501871741236937,
        43.60630042312005
      ]
    },
    "record_timestamp": "2019-03-04T10:45:32+01:00"
  },
  {
    "datasetid": "recup-verre",
    "recordid": "ef87cbaf3f1502be217bc5ee2a0a476ceb31b34f",
    "fields": {
      "commune": "BALMA",
      "adresse": "COURTEPAILLE - 6 AV CHARLES DE GAULLE",
      "code_com": "31044",
      "geo_point_2d": [
        43.59483476638946,
        1.497542478783867
      ],
      "dmt_type": "Verre",
      "geo_shape": {
        "type": "Point",
        "coordinates": [
          1.497542478783867,
          43.59483476638946
        ]
      },
      "id": "BALVE5028"
    },
    "geometry": {
      "type": "Point",
      "coordinates": [
        1.497542478783867,
        43.59483476638946
      ]
    },
    "record_timestamp": "2019-03-04T10:45:32+01:00"
  },
  {
    "datasetid": "recup-verre",
    "recordid": "2f7eb41a3f79e8bdc690c4546e2583872d1fc934",
    "fields": {
      "commune": "BALMA",
      "adresse": "RUE DES JARDINS (A COTE INTERMARCHE)",
      "code_com": "31044",
      "geo_point_2d": [
        43.612720408597816,
        1.488361755750569
      ],
      "dmt_type": "Verre",
      "geo_shape": {
        "type": "Point",
        "coordinates": [
          1.488361755750569,
          43.612720408597816
        ]
      },
      "id": "BALVE5042"
    },
    "geometry": {
      "type": "Point",
      "coordinates": [
        1.488361755750569,
        43.612720408597816
      ]
    },
    "record_timestamp": "2019-03-04T10:45:32+01:00"
  },
  {
    "datasetid": "recup-verre",
    "recordid": "eeba51035a8038a971be1b2e681f141e9b410649",
    "fields": {
      "commune": "BALMA",
      "adresse": "LES ANCIENS PARADOUX-AV CLEMENCEAU",
      "code_com": "31044",
      "geo_point_2d": [
        43.62112945446231,
        1.507918151028874
      ],
      "dmt_type": "Verre",
      "geo_shape": {
        "type": "Point",
        "coordinates": [
          1.507918151028874,
          43.62112945446231
        ]
      },
      "id": "BALVE5024"
    },
    "geometry": {
      "type": "Point",
      "coordinates": [
        1.507918151028874,
        43.62112945446231
      ]
    },
    "record_timestamp": "2019-03-04T10:45:32+01:00"
  },
  {
    "datasetid": "recup-verre",
    "recordid": "a39c3c909bf24de1cf56bd00fb6127e8476df6d7",
    "fields": {
      "commune": "BALMA",
      "adresse": "LOTISSEMENT LA COSTE-AV POINCARE",
      "code_com": "31044",
      "geo_point_2d": [
        43.61619011916377,
        1.522709101154529
      ],
      "dmt_type": "Verre",
      "geo_shape": {
        "type": "Point",
        "coordinates": [
          1.522709101154529,
          43.61619011916377
        ]
      },
      "id": "BALVE5025"
    },
    "geometry": {
      "type": "Point",
      "coordinates": [
        1.522709101154529,
        43.61619011916377
      ]
    },
    "record_timestamp": "2019-03-04T10:45:32+01:00"
  },
  {
    "datasetid": "recup-verre",
    "recordid": "02a9814cf4fbaf158d406a7dcb4c18c3b267ebe8",
    "fields": {
      "commune": "BALMA",
      "adresse": "ECOLE-ROUTE DE MONS",
      "code_com": "31044",
      "geo_point_2d": [
        43.60968044415484,
        1.499641788860199
      ],
      "dmt_type": "Verre",
      "geo_shape": {
        "type": "Point",
        "coordinates": [
          1.499641788860199,
          43.60968044415484
        ]
      },
      "id": "BALVE5020"
    },
    "geometry": {
      "type": "Point",
      "coordinates": [
        1.499641788860199,
        43.60968044415484
      ]
    },
    "record_timestamp": "2019-03-04T10:45:32+01:00"
  },
  {
    "datasetid": "recup-verre",
    "recordid": "fcb255be8824faa0f3b4db1eece19a240b32d721",
    "fields": {
      "commune": "BEAUZELLE",
      "adresse": "CIMETIERE",
      "code_com": "31056",
      "geo_point_2d": [
        43.659600504137586,
        1.385631874610897
      ],
      "dmt_type": "Verre",
      "geo_shape": {
        "type": "Point",
        "coordinates": [
          1.385631874610897,
          43.659600504137586
        ]
      },
      "id": "BZLVE5010"
    },
    "geometry": {
      "type": "Point",
      "coordinates": [
        1.385631874610897,
        43.659600504137586
      ]
    },
    "record_timestamp": "2019-03-04T10:45:32+01:00"
  },
  {
    "datasetid": "recup-verre",
    "recordid": "3bdf591a02e84ecde6cfe3a6ad9a7b56ce947f66",
    "fields": {
      "commune": "BEAUPUY",
      "adresse": "VILLAGE",
      "code_com": "31053",
      "geo_point_2d": [
        43.64650039131142,
        1.556141774672787
      ],
      "dmt_type": "Verre",
      "geo_shape": {
        "type": "Point",
        "coordinates": [
          1.556141774672787,
          43.64650039131142
        ]
      },
      "id": "BEAVE5001"
    },
    "geometry": {
      "type": "Point",
      "coordinates": [
        1.556141774672787,
        43.64650039131142
      ]
    },
    "record_timestamp": "2019-03-04T10:45:32+01:00"
  },
  {
    "datasetid": "recup-verre",
    "recordid": "04d9c049e8a3027a3a33ccb466547e413dd34e53",
    "fields": {
      "commune": "LESPINASSE",
      "adresse": "GROUPE SCOLAIRE-ALLEE PAUL RIQUET",
      "code_com": "31293",
      "geo_point_2d": [
        43.70560064530569,
        1.386599676568925
      ],
      "dmt_type": "Verre",
      "geo_shape": {
        "type": "Point",
        "coordinates": [
          1.386599676568925,
          43.70560064530569
        ]
      },
      "id": "LESVE5008"
    },
    "geometry": {
      "type": "Point",
      "coordinates": [
        1.386599676568925,
        43.70560064530569
      ]
    },
    "record_timestamp": "2019-03-04T10:45:32+01:00"
  },
  {
    "datasetid": "recup-verre",
    "recordid": "38b3cd26c48a7f7727ff3e4fd397cd2db02d3801",
    "fields": {
      "commune": "LAUNAGUET",
      "adresse": "FACE ESPACE F.MITTERAND-RUE FIGNAC",
      "code_com": "31282",
      "geo_point_2d": [
        43.67577042629506,
        1.45352180848154
      ],
      "dmt_type": "Verre",
      "geo_shape": {
        "type": "Point",
        "coordinates": [
          1.45352180848154,
          43.67577042629506
        ]
      },
      "id": "LAUVE5006"
    },
    "geometry": {
      "type": "Point",
      "coordinates": [
        1.45352180848154,
        43.67577042629506
      ]
    },
    "record_timestamp": "2019-03-04T10:45:32+01:00"
  },
  {
    "datasetid": "recup-verre",
    "recordid": "af4d6a4d4a27f4a1a371c92ee37eff946ad26076",
    "fields": {
      "commune": "MONTRABE",
      "adresse": "PARKING TENNIS-ALLEE DE L AUTAN",
      "code_com": "31389",
      "geo_point_2d": [
        43.647330393804985,
        1.52760177857278
      ],
      "dmt_type": "Verre",
      "geo_shape": {
        "type": "Point",
        "coordinates": [
          1.52760177857278,
          43.647330393804985
        ]
      },
      "id": "MTRVE5004"
    },
    "geometry": {
      "type": "Point",
      "coordinates": [
        1.52760177857278,
        43.647330393804985
      ]
    },
    "record_timestamp": "2019-03-04T10:45:32+01:00"
  },
  {
    "datasetid": "recup-verre",
    "recordid": "11bacbb6f720c93a15521c81691870f6e3b3f8f5",
    "fields": {
      "commune": "LESPINASSE",
      "adresse": "COTE MAIRIE-16 RUE DES LACS",
      "code_com": "31293",
      "geo_point_2d": [
        43.71312064579844,
        1.39236961180525
      ],
      "dmt_type": "Verre",
      "geo_shape": {
        "type": "Point",
        "coordinates": [
          1.39236961180525,
          43.71312064579844
        ]
      },
      "id": "LESVE5005"
    },
    "geometry": {
      "type": "Point",
      "coordinates": [
        1.39236961180525,
        43.71312064579844
      ]
    },
    "record_timestamp": "2019-03-04T10:45:32+01:00"
  },
  {
    "datasetid": "recup-verre",
    "recordid": "80b9d6c92758eec4585422bb656672ffc63d239e",
    "fields": {
      "commune": "MONTRABE",
      "adresse": "SUPER U ROUTE DE LAVAUR",
      "code_com": "31389",
      "geo_point_2d": [
        43.64505947322474,
        1.532758088547033
      ],
      "dmt_type": "Verre",
      "geo_shape": {
        "type": "Point",
        "coordinates": [
          1.532758088547033,
          43.64505947322474
        ]
      },
      "id": "MTRVE5011"
    },
    "geometry": {
      "type": "Point",
      "coordinates": [
        1.532758088547033,
        43.64505947322474
      ]
    },
    "record_timestamp": "2019-03-04T10:45:32+01:00"
  },
  {
    "datasetid": "recup-verre",
    "recordid": "91018071153e41794c3bcf526fc485388e6ce574",
    "fields": {
      "commune": "LAUNAGUET",
      "adresse": "CHEMIN DE VIREBENTS",
      "code_com": "31282",
      "geo_point_2d": [
        43.65848942290871,
        1.454838097192162
      ],
      "dmt_type": "Verre",
      "geo_shape": {
        "type": "Point",
        "coordinates": [
          1.454838097192162,
          43.65848942290871
        ]
      },
      "id": "LAUVE5005"
    },
    "geometry": {
      "type": "Point",
      "coordinates": [
        1.454838097192162,
        43.65848942290871
      ]
    },
    "record_timestamp": "2019-03-04T10:45:32+01:00"
  },
  {
    "datasetid": "recup-verre",
    "recordid": "7e0a436408370f0eb62bbe8f2b5d86f600393826",
    "fields": {
      "commune": "LAUNAGUET",
      "adresse": "SUPERMARCHE SIMPLY",
      "code_com": "31282",
      "geo_point_2d": [
        43.65904991419569,
        1.455217819901857
      ],
      "dmt_type": "Verre",
      "geo_shape": {
        "type": "Point",
        "coordinates": [
          1.455217819901857,
          43.65904991419569
        ]
      },
      "id": "LAUVE5015"
    },
    "geometry": {
      "type": "Point",
      "coordinates": [
        1.455217819901857,
        43.65904991419569
      ]
    },
    "record_timestamp": "2019-03-04T10:45:32+01:00"
  },
  {
    "datasetid": "recup-verre",
    "recordid": "a547d8deb49ae76aed824142e56fd2a8b477fd08",
    "fields": {
      "commune": "PIBRAC",
      "adresse": "NOUVEAU CIMETIERE",
      "code_com": "31417",
      "geo_point_2d": [
        43.62716059336042,
        1.281701749087698
      ],
      "dmt_type": "Verre",
      "geo_shape": {
        "type": "Point",
        "coordinates": [
          1.281701749087698,
          43.62716059336042
        ]
      },
      "id": "PIBVE5016"
    },
    "geometry": {
      "type": "Point",
      "coordinates": [
        1.281701749087698,
        43.62716059336042
      ]
    },
    "record_timestamp": "2019-03-04T10:45:32+01:00"
  },
  {
    "datasetid": "recup-verre",
    "recordid": "c07431bb654f447676e10a4cc52cc34ba38e4aed",
    "fields": {
      "commune": "PIBRAC",
      "adresse": "RUE MONTPLAISIR",
      "code_com": "31417",
      "geo_point_2d": [
        43.61559056066013,
        1.290621790423663
      ],
      "dmt_type": "Verre",
      "geo_shape": {
        "type": "Point",
        "coordinates": [
          1.290621790423663,
          43.61559056066013
        ]
      },
      "id": "PIBVE5015"
    },
    "geometry": {
      "type": "Point",
      "coordinates": [
        1.290621790423663,
        43.61559056066013
      ]
    },
    "record_timestamp": "2019-03-04T10:45:32+01:00"
  },
  {
    "datasetid": "recup-verre",
    "recordid": "7c6528686643481ef54982fb0d52acc66b740c91",
    "fields": {
      "commune": "MONTRABE",
      "adresse": "RUE PASTEUR",
      "code_com": "31389",
      "geo_point_2d": [
        43.63841038581713,
        1.521621851501544
      ],
      "dmt_type": "Verre",
      "geo_shape": {
        "type": "Point",
        "coordinates": [
          1.521621851501544,
          43.63841038581713
        ]
      },
      "id": "MTRVE5008"
    },
    "geometry": {
      "type": "Point",
      "coordinates": [
        1.521621851501544,
        43.63841038581713
      ]
    },
    "record_timestamp": "2019-03-04T10:45:32+01:00"
  },
  {
    "datasetid": "recup-verre",
    "recordid": "3c6509c3d7cc551ebfec03fdac835047ada24050",
    "fields": {
      "commune": "L' UNION",
      "adresse": "C.CIAL COGEZ-AVENUE ST JEAN PIED DE PORT (LIDL)",
      "code_com": "31561",
      "geo_point_2d": [
        43.649934860766166,
        1.484089317833758
      ],
      "dmt_type": "Verre",
      "geo_shape": {
        "type": "Point",
        "coordinates": [
          1.484089317833758,
          43.649934860766166
        ]
      },
      "id": "UNIVE5006"
    },
    "geometry": {
      "type": "Point",
      "coordinates": [
        1.484089317833758,
        43.649934860766166
      ]
    },
    "record_timestamp": "2019-03-04T10:45:32+01:00"
  },
  {
    "datasetid": "recup-verre",
    "recordid": "fc941a2a16fedb55e3dd821b8196f62467bbdc73",
    "fields": {
      "commune": "L' UNION",
      "adresse": "C.CIAL COGEZ-AVENUE ST JEAN PIED DE PORT (LIDL)",
      "code_com": "31561",
      "geo_point_2d": [
        43.64988943147337,
        1.484028102389004
      ],
      "dmt_type": "Verre",
      "geo_shape": {
        "type": "Point",
        "coordinates": [
          1.484028102389004,
          43.64988943147337
        ]
      },
      "id": "UNIVE5007"
    },
    "geometry": {
      "type": "Point",
      "coordinates": [
        1.484028102389004,
        43.64988943147337
      ]
    },
    "record_timestamp": "2019-03-04T10:45:32+01:00"
  },
  {
    "datasetid": "recup-verre",
    "recordid": "bdb94e5cafcf7b4556ab4ec93ea302b69fc705a5",
    "fields": {
      "commune": "L' UNION",
      "adresse": "CENTRE CIAL ST CAPRAIS-AVENUE DE TOULOUSE",
      "code_com": "31561",
      "geo_point_2d": [
        43.65630042072348,
        1.479651835805426
      ],
      "dmt_type": "Verre",
      "geo_shape": {
        "type": "Point",
        "coordinates": [
          1.479651835805426,
          43.65630042072348
        ]
      },
      "id": "UNIVE5012"
    },
    "geometry": {
      "type": "Point",
      "coordinates": [
        1.479651835805426,
        43.65630042072348
      ]
    },
    "record_timestamp": "2019-03-04T10:45:32+01:00"
  },
  {
    "datasetid": "recup-verre",
    "recordid": "c65d299fc13fe0217d3c8063c828a761cb4ffead",
    "fields": {
      "commune": "L' UNION",
      "adresse": "CENTRE CIAL LES ACACIAS-RUE DES PINS",
      "code_com": "31561",
      "geo_point_2d": [
        43.6582151072996,
        1.473352890702306
      ],
      "dmt_type": "Verre",
      "geo_shape": {
        "type": "Point",
        "coordinates": [
          1.473352890702306,
          43.6582151072996
        ]
      },
      "id": "UNIVE5010"
    },